city,city_ascii,state_id,state_name,county_fips,county_name,lat,lng,population,density,source,military,incorporated,timezone,ranking,zips,id
Minneapolis,Minneapolis,MN,Minnesota,27053,Hennepin,44.9635,-93.2678,2977172,3071,polygon,FALSE,TRUE,America/Chicago,1,55403 55409 55408 55407 55406 55405 55404 55402 55401 55430 55454 55455 55418 55419 55410 55411 55412 55413 55414 55415 55416 55417 55440 55458 55459 55467 55470 55472 55474 55478 55479 55480 55483 55484 55485 55486 55487 55488,1840007830
St. Paul,St. Paul,MN,Minnesota,27123,Ramsey,44.9477,-93.104,308096,2288,polygon,FALSE,TRUE,America/Chicago,2,55114 55117 55116 55119 55130 55101 55155 55102 55103 55106 55107 55104 55105 55108 55131 55133 55144 55145 55146 55164 55170,1840008940
Rochester,Rochester,MN,Minnesota,27109,Olmsted,44.0151,-92.4778,119942,831,polygon,FALSE,TRUE,America/Chicago,2,55902 55901 55906 55904 55905,1840008987
Duluth,Duluth,MN,Minnesota,27137,St. Louis,46.7756,-92.1392,119476,461,polygon,FALSE,TRUE,America/Chicago,2,55803 55802 55805 55804 55808 55810 55811 55812 55807 55806 55815 55816,1840007685
St. Cloud,St. Cloud,MN,Minnesota,27145,Stearns,45.5339,-94.1718,115028,660,polygon,FALSE,TRUE,America/Chicago,2,56304 56301 56303 56302 56372 56393 56395 56396,1840008881
Bloomington,Bloomington,MN,Minnesota,27053,Hennepin,44.8306,-93.3151,84943,945,polygon,FALSE,TRUE,America/Chicago,3,55425 55420 55431 55437 55438,1840006747
Brooklyn Park,Brooklyn Park,MN,Minnesota,27053,Hennepin,45.1112,-93.3505,80389,1190,polygon,FALSE,TRUE,America/Chicago,3,55444 55429 55428 55443 55445,1840004023
Plymouth,Plymouth,MN,Minnesota,27053,Hennepin,45.0225,-93.4618,79768,941,polygon,FALSE,TRUE,America/Chicago,3,55442 55441 55447 55446,1840008929
Woodbury,Woodbury,MN,Minnesota,27163,Washington,44.9056,-92.923,72828,805,polygon,FALSE,TRUE,America/Chicago,3,55129 55125,1840009998
Maple Grove,Maple Grove,MN,Minnesota,27053,Hennepin,45.1089,-93.4626,72622,860,polygon,FALSE,TRUE,America/Chicago,3,55369 55311,1840008923
Lakeville,Lakeville,MN,Minnesota,27037,Dakota,44.6774,-93.252,67317,715,polygon,FALSE,TRUE,America/Chicago,3,55044,1840007859
Eagan,Eagan,MN,Minnesota,27037,Dakota,44.8169,-93.1638,66372,821,polygon,FALSE,TRUE,America/Chicago,3,55121 55122 55123,1840007852
Blaine,Blaine,MN,Minnesota,27003,Anoka,45.1696,-93.2077,65607,769,polygon,FALSE,TRUE,America/Chicago,3,55014 55434 55449,1840006719
Eden Prairie,Eden Prairie,MN,Minnesota,27053,Hennepin,44.8488,-93.4595,64893,770,polygon,FALSE,TRUE,America/Chicago,3,55344 55346 55347,1840007821
Coon Rapids,Coon Rapids,MN,Minnesota,27003,Anoka,45.1755,-93.3095,62998,1075,polygon,FALSE,TRUE,America/Chicago,3,55433 55448,1840006714
Mankato,Mankato,MN,Minnesota,27013,Blue Earth,44.1712,-93.9773,62889,868,polygon,FALSE,TRUE,America/Chicago,3,56001 56002,1840008975
Burnsville,Burnsville,MN,Minnesota,27037,Dakota,44.7648,-93.2795,61339,953,polygon,FALSE,TRUE,America/Chicago,3,55306 55337,1840006766
Apple Valley,Apple Valley,MN,Minnesota,27037,Dakota,44.7457,-93.2006,55135,1254,polygon,FALSE,TRUE,America/Chicago,3,55124,1840006768
Minnetonka,Minnetonka,MN,Minnesota,27053,Hennepin,44.9322,-93.4598,54064,775,polygon,FALSE,TRUE,America/Chicago,3,55305 55345 55343 55391,1840007831
Edina,Edina,MN,Minnesota,27053,Hennepin,44.8914,-93.3602,52857,1320,polygon,FALSE,TRUE,America/Chicago,3,55424 55436 55435 55439 55410,1840007822
St. Louis Park,St. Louis Park,MN,Minnesota,27053,Hennepin,44.9488,-93.3649,48662,1767,polygon,FALSE,TRUE,America/Chicago,3,55426 55416,1840008935
Moorhead,Moorhead,MN,Minnesota,27027,Clay,46.8673,-96.7461,43652,756,polygon,FALSE,TRUE,America/Chicago,3,56560 56562 56563,1840007731
Shakopee,Shakopee,MN,Minnesota,27139,Scott,44.7744,-93.4764,41570,570,polygon,FALSE,TRUE,America/Chicago,3,55379,1840008955
Maplewood,Maplewood,MN,Minnesota,27123,Ramsey,44.9842,-93.0247,40885,926,polygon,FALSE,TRUE,America/Chicago,3,55117 55119 55109,1840008937
Cottage Grove,Cottage Grove,MN,Minnesota,27163,Washington,44.8161,-92.9274,37604,431,polygon,FALSE,TRUE,America/Chicago,3,55016 55033,1840006735
Roseville,Roseville,MN,Minnesota,27123,Ramsey,45.0155,-93.1545,36457,1081,polygon,FALSE,TRUE,America/Chicago,3,55113,1840008939
Richfield,Richfield,MN,Minnesota,27053,Hennepin,44.8762,-93.2833,36354,2088,polygon,FALSE,TRUE,America/Chicago,2,55423,1840008930
Inver Grove Heights,Inver Grove Heights,MN,Minnesota,27037,Dakota,44.8247,-93.0596,35672,494,polygon,FALSE,TRUE,America/Chicago,3,55077 55076,1840007858
Andover,Andover,MN,Minnesota,27003,Anoka,45.2571,-93.3265,33140,377,polygon,FALSE,TRUE,America/Chicago,3,55304,1840006716
Savage,Savage,MN,Minnesota,27139,Scott,44.7544,-93.3631,32362,801,polygon,FALSE,TRUE,America/Chicago,3,55378,1840008957
Brooklyn Center,Brooklyn Center,MN,Minnesota,27053,Hennepin,45.0681,-93.3162,30690,1480,polygon,FALSE,TRUE,America/Chicago,3,55429 55430,1840004022
Winona,Winona,MN,Minnesota,27169,Winona,44.0505,-91.6684,29601,539,polygon,FALSE,TRUE,America/Chicago,3,55987,1840010034
Oakdale,Oakdale,MN,Minnesota,27163,Washington,44.9876,-92.9641,27933,983,polygon,FALSE,TRUE,America/Chicago,3,55128,1840007813
Fridley,Fridley,MN,Minnesota,27003,Anoka,45.0841,-93.2595,27826,1056,polygon,FALSE,TRUE,America/Chicago,3,55421 55432,1840007798
Ramsey,Ramsey,MN,Minnesota,27003,Anoka,45.2617,-93.4494,27721,370,polygon,FALSE,TRUE,America/Chicago,3,55303,1840008904
Monticello,Monticello,MN,Minnesota,27171,Wright,45.298,-93.7984,27665,609,polygon,FALSE,TRUE,America/Chicago,3,55362,1840007795
Prior Lake,Prior Lake,MN,Minnesota,27139,Scott,44.7251,-93.4409,27241,661,polygon,FALSE,TRUE,America/Chicago,3,55372 55379,1840008956
Shoreview,Shoreview,MN,Minnesota,27123,Ramsey,45.0842,-93.1358,27130,972,polygon,FALSE,TRUE,America/Chicago,3,55126,1840008938
Chaska,Chaska,MN,Minnesota,27019,Carver,44.8164,-93.6092,26989,612,polygon,FALSE,TRUE,America/Chicago,3,55318,1840006760
Chanhassen,Chanhassen,MN,Minnesota,27019,Carver,44.8544,-93.5621,26389,499,polygon,FALSE,TRUE,America/Chicago,3,55331 55317 55318,1840006759
White Bear Lake,White Bear Lake,MN,Minnesota,27123,Ramsey,45.0657,-93.015,25875,1238,polygon,FALSE,TRUE,America/Chicago,3,55110,1840010005
Owatonna,Owatonna,MN,Minnesota,27147,Steele,44.0914,-93.2304,25704,682,polygon,FALSE,TRUE,America/Chicago,3,55060,1840008983
Austin,Austin,MN,Minnesota,27099,Mower,43.6718,-92.9783,25626,746,polygon,FALSE,TRUE,America/Chicago,3,55912,1840006830
Champlin,Champlin,MN,Minnesota,27053,Hennepin,45.1702,-93.3903,25268,1196,polygon,FALSE,TRUE,America/Chicago,3,55316,1840006746
Elk River,Elk River,MN,Minnesota,27141,Sherburne,45.3314,-93.567,25213,229,polygon,FALSE,TRUE,America/Chicago,3,55330,1840007794
Rosemount,Rosemount,MN,Minnesota,27037,Dakota,44.7465,-93.0662,25207,292,polygon,FALSE,TRUE,America/Chicago,3,55068,1840008951
Forest Lake,Forest Lake,MN,Minnesota,27163,Washington,45.2536,-92.9583,24853,264,polygon,FALSE,TRUE,America/Chicago,3,55025,1840007808
Faribault,Faribault,MN,Minnesota,27131,Rice,44.2985,-93.2786,24250,608,polygon,FALSE,TRUE,America/Chicago,3,55021,1840007889
Farmington,Farmington,MN,Minnesota,27037,Dakota,44.6573,-93.1688,23091,609,polygon,FALSE,TRUE,America/Chicago,3,55024,1840007853
Hastings,Hastings,MN,Minnesota,27037,Dakota,44.7318,-92.8538,23047,858,polygon,FALSE,TRUE,America/Chicago,3,55033,1840006770
Crystal,Crystal,MN,Minnesota,27053,Hennepin,45.0377,-93.3599,22899,1527,polygon,FALSE,TRUE,America/Chicago,3,55422 55427 55429 55428,1840006745
New Brighton,New Brighton,MN,Minnesota,27123,Ramsey,45.0658,-93.206,22753,1352,polygon,FALSE,TRUE,America/Chicago,3,55112,1840007841
Northfield,Northfield,MN,Minnesota,27131,Rice,44.455,-93.1698,22325,942,polygon,FALSE,TRUE,America/Chicago,3,55057,1840007891
Lino Lakes,Lino Lakes,MN,Minnesota,27003,Anoka,45.1679,-93.083,22119,302,polygon,FALSE,TRUE,America/Chicago,3,55014 55038,1840008902
Golden Valley,Golden Valley,MN,Minnesota,27053,Hennepin,44.9901,-93.3591,21886,828,polygon,FALSE,TRUE,America/Chicago,3,55422 55427 55426 55416,1840007824
Alexandria,Alexandria,MN,Minnesota,27041,Douglas,45.8777,-95.3766,21204,310,polygon,FALSE,TRUE,America/Chicago,3,56308,1840006680
New Hope,New Hope,MN,Minnesota,27053,Hennepin,45.0374,-93.3869,20907,1596,polygon,FALSE,TRUE,America/Chicago,3,55427 55428,1840007829
Willmar,Willmar,MN,Minnesota,27067,Kandiyohi,45.122,-95.0569,20510,549,polygon,FALSE,TRUE,America/Chicago,3,56201,1840009995
Columbia Heights,Columbia Heights,MN,Minnesota,27003,Anoka,45.0484,-93.2472,20427,2327,polygon,FALSE,TRUE,America/Chicago,2,55421,1840006712
South St. Paul,South St. Paul,MN,Minnesota,27037,Dakota,44.8876,-93.0411,20060,1377,polygon,FALSE,TRUE,America/Chicago,3,55075,1840008948
West St. Paul,West St. Paul,MN,Minnesota,27037,Dakota,44.9018,-93.0858,19961,1570,polygon,FALSE,TRUE,America/Chicago,3,55118,1840010012
Stillwater,Stillwater,MN,Minnesota,27163,Washington,45.0573,-92.8313,19627,941,polygon,FALSE,TRUE,America/Chicago,3,55082 55083,1840008914
Brainerd,Brainerd,MN,Minnesota,27035,Crow Wing,46.3553,-94.1982,19583,426,polygon,FALSE,TRUE,America/Chicago,3,56401,1840006644
Sartell,Sartell,MN,Minnesota,27145,Stearns,45.6187,-94.2207,18926,726,polygon,FALSE,TRUE,America/Chicago,3,56377,1840008886
Hopkins,Hopkins,MN,Minnesota,27053,Hennepin,44.9261,-93.4056,18468,1752,polygon,FALSE,TRUE,America/Chicago,3,55305 55343,1840006749
St. Michael,St. Michael,MN,Minnesota,27171,Wright,45.2014,-93.692,18204,215,polygon,FALSE,TRUE,America/Chicago,3,55313 55376,1840008901
Otsego,Otsego,MN,Minnesota,27171,Wright,45.266,-93.62,18113,236,polygon,FALSE,TRUE,America/Chicago,3,55301 55330 55362,1840008899
Albert Lea,Albert Lea,MN,Minnesota,27047,Freeborn,43.6547,-93.3642,17656,513,polygon,FALSE,TRUE,America/Chicago,3,56007,1840006824
Anoka,Anoka,MN,Minnesota,27003,Anoka,45.2099,-93.3893,17549,1017,polygon,FALSE,TRUE,America/Chicago,3,55303,1840006717
Buffalo,Buffalo,MN,Minnesota,27171,Wright,45.1796,-93.8644,16993,846,polygon,FALSE,TRUE,America/Chicago,3,55313,1840006703
Bemidji,Bemidji,MN,Minnesota,27007,Beltrami,47.4828,-94.8796,16807,409,polygon,FALSE,TRUE,America/Chicago,3,56601 56619,1840006600
Ham Lake,Ham Lake,MN,Minnesota,27003,Anoka,45.2545,-93.2039,16783,188,polygon,FALSE,TRUE,America/Chicago,3,55304,1840006720
Red Wing,Red Wing,MN,Minnesota,27049,Goodhue,44.5816,-92.6036,16320,180,polygon,FALSE,TRUE,America/Chicago,3,55089 55066,1840008959
Cambridge,Cambridge,MN,Minnesota,27059,Isanti,45.5612,-93.2283,16143,474,polygon,FALSE,TRUE,America/Chicago,3,55008,1840006692
Hibbing,Hibbing,MN,Minnesota,27137,St. Louis,47.3981,-92.9487,15855,33,polygon,FALSE,TRUE,America/Chicago,3,55746,1840006594
Hugo,Hugo,MN,Minnesota,27163,Washington,45.1671,-92.9588,15267,176,polygon,FALSE,TRUE,America/Chicago,3,55110 55038,1840006739
Robbinsdale,Robbinsdale,MN,Minnesota,27053,Hennepin,45.0261,-93.3332,14389,1987,polygon,FALSE,TRUE,America/Chicago,3,55422,1840008931
Sauk Rapids,Sauk Rapids,MN,Minnesota,27009,Benton,45.5981,-94.1539,14146,869,polygon,FALSE,TRUE,America/Chicago,3,56379,1840008873
Hutchinson,Hutchinson,MN,Minnesota,27085,McLeod,44.8856,-94.3768,13983,636,polygon,FALSE,TRUE,America/Chicago,3,55350,1840006756
North Mankato,North Mankato,MN,Minnesota,27103,Nicollet,44.1813,-94.0387,13948,862,polygon,FALSE,TRUE,America/Chicago,3,56003,1840007896
Fergus Falls,Fergus Falls,MN,Minnesota,27111,Otter Tail,46.2853,-96.076,13794,368,polygon,FALSE,TRUE,America/Chicago,3,56537 56538,1840007747
Vadnais Heights,Vadnais Heights,MN,Minnesota,27123,Ramsey,45.057,-93.0748,13607,753,polygon,FALSE,TRUE,America/Chicago,3,55127 55110,1840010004
Rogers,Rogers,MN,Minnesota,27053,Hennepin,45.1865,-93.5783,13490,204,polygon,FALSE,TRUE,America/Chicago,3,55374,1840008932
Marshall,Marshall,MN,Minnesota,27083,Lyon,44.4488,-95.7897,13487,509,polygon,FALSE,TRUE,America/Chicago,3,56258,1840007879
Mounds View,Mounds View,MN,Minnesota,27123,Ramsey,45.1071,-93.2076,13324,1268,polygon,FALSE,TRUE,America/Chicago,3,55112,1840007840
New Ulm,New Ulm,MN,Minnesota,27015,Brown,44.3121,-94.4686,13212,502,polygon,FALSE,TRUE,America/Chicago,3,56073,1840007894
Worthington,Worthington,MN,Minnesota,27105,Nobles,43.6281,-95.599,13099,645,polygon,FALSE,TRUE,America/Chicago,3,56187,1840010036
Cloquet,Cloquet,MN,Minnesota,27017,Carlton,46.7221,-92.4923,12813,131,polygon,FALSE,TRUE,America/Chicago,3,55720,1840006646
North St. Paul,North St. Paul,MN,Minnesota,27123,Ramsey,45.0137,-92.9995,12506,1691,polygon,FALSE,TRUE,America/Chicago,3,55109,1840007843
Waconia,Waconia,MN,Minnesota,27019,Carver,44.8412,-93.7927,12428,1033,polygon,FALSE,TRUE,America/Chicago,3,55387,1840010008
St. Peter,St. Peter,MN,Minnesota,27103,Nicollet,44.3296,-93.9659,12421,756,polygon,FALSE,TRUE,America/Chicago,3,56082,1840008972
Virginia,Virginia,MN,Minnesota,27137,St. Louis,47.5169,-92.5128,12381,172,polygon,FALSE,TRUE,America/Chicago,3,55792 55777,1840009954
East Bethel,East Bethel,MN,Minnesota,27003,Anoka,45.3557,-93.2038,12038,104,polygon,FALSE,TRUE,America/Chicago,3,55092 55011 55005,1840007797
Mendota Heights,Mendota Heights,MN,Minnesota,27037,Dakota,44.8815,-93.14,11343,482,polygon,FALSE,TRUE,America/Chicago,3,55120 55118 55150,1840007855
Big Lake,Big Lake,MN,Minnesota,27141,Sherburne,45.3416,-93.7431,11226,615,polygon,FALSE,TRUE,America/Chicago,3,55309,1840006701
Grand Rapids,Grand Rapids,MN,Minnesota,27061,Itasca,47.238,-93.5327,11214,191,polygon,FALSE,TRUE,America/Chicago,3,55744 55730 55745,1840007714
North Branch,North Branch,MN,Minnesota,27025,Chisago,45.5137,-92.9601,10767,116,polygon,FALSE,TRUE,America/Chicago,3,55056 55032,1840007790
Little Canada,Little Canada,MN,Minnesota,27123,Ramsey,45.0244,-93.0863,10501,1040,polygon,FALSE,TRUE,America/Chicago,3,55117,1840008936
Arden Hills,Arden Hills,MN,Minnesota,27123,Ramsey,45.0721,-93.167,10281,469,polygon,FALSE,TRUE,America/Chicago,3,55112,1840006752
Victoria,Victoria,MN,Minnesota,27019,Carver,44.8634,-93.6586,10206,452,polygon,FALSE,TRUE,America/Chicago,3,55386 55331 55318,1840010007
Fairmont,Fairmont,MN,Minnesota,27091,Martin,43.6441,-94.4621,10030,257,polygon,FALSE,TRUE,America/Chicago,3,56031,1840007950
Hermantown,Hermantown,MN,Minnesota,27137,St. Louis,46.8058,-92.2407,9637,108,polygon,FALSE,TRUE,America/Chicago,3,55814 55810 55811,1840006593
Mound,Mound,MN,Minnesota,27053,Hennepin,44.9328,-93.6591,9509,1283,polygon,FALSE,TRUE,America/Chicago,3,55364,1840007828
Little Falls,Little Falls,MN,Minnesota,27097,Morrison,45.9833,-94.36,9406,450,polygon,FALSE,TRUE,America/Chicago,3,56345,1840008861
Zimmerman,Zimmerman,MN,Minnesota,27141,Sherburne,45.4416,-93.5981,9300,666,polygon,FALSE,TRUE,America/Chicago,3,55398,1840009993
Detroit Lakes,Detroit Lakes,MN,Minnesota,27005,Becker,46.806,-95.8449,9288,322,polygon,FALSE,TRUE,America/Chicago,3,56501 56502,1840006632
Lake Elmo,Lake Elmo,MN,Minnesota,27163,Washington,44.9944,-92.9031,9210,160,polygon,FALSE,TRUE,America/Chicago,3,55042,1840007814
Thief River Falls,Thief River Falls,MN,Minnesota,27113,Pennington,48.1112,-96.1771,9147,602,polygon,FALSE,TRUE,America/Chicago,3,56701,1840008825
Lindstrom,Lindstrom,MN,Minnesota,27025,Chisago,45.387,-92.8477,9023,482,polygon,FALSE,TRUE,America/Chicago,3,55045,1840008892
St. Anthony,St. Anthony,MN,Minnesota,27053,Hennepin,45.0278,-93.2174,9013,1556,polygon,FALSE,TRUE,America/Chicago,3,55421 55418,1840008933
Waseca,Waseca,MN,Minnesota,27161,Waseca,44.0826,-93.5025,8984,861,polygon,FALSE,TRUE,America/Chicago,3,56093,1840010030
Oak Grove,Oak Grove,MN,Minnesota,27003,Anoka,45.3409,-93.3264,8917,101,polygon,FALSE,TRUE,America/Chicago,3,55011 55303 55005,1840007799
New Prague,New Prague,MN,Minnesota,27079,Le Sueur,44.5459,-93.5758,8859,834,polygon,FALSE,TRUE,America/Chicago,3,56071,1840007882
East Grand Forks,East Grand Forks,MN,Minnesota,27119,Polk,47.9284,-97.0138,8535,561,polygon,FALSE,TRUE,America/Chicago,3,56721,1840007700
Baxter,Baxter,MN,Minnesota,27035,Crow Wing,46.3426,-94.2793,8364,171,polygon,FALSE,TRUE,America/Chicago,3,56425,1840006643
Orono,Orono,MN,Minnesota,27053,Hennepin,44.9657,-93.5908,8339,202,polygon,FALSE,TRUE,America/Chicago,3,55391 55356 55323,1840008927
Mahtomedi,Mahtomedi,MN,Minnesota,27163,Washington,45.0619,-92.966,8294,926,polygon,FALSE,TRUE,America/Chicago,3,55110 55115,1840008913
Minnetrista,Minnetrista,MN,Minnesota,27053,Hennepin,44.9356,-93.7103,8130,121,polygon,FALSE,TRUE,America/Chicago,3,55331 55364 55375 55359,1840007833
Shorewood,Shorewood,MN,Minnesota,27053,Hennepin,44.9033,-93.5903,8084,584,polygon,FALSE,TRUE,America/Chicago,3,55331 55364,1840008925
Wyoming,Wyoming,MN,Minnesota,27025,Chisago,45.3365,-92.9766,8066,150,polygon,FALSE,TRUE,America/Chicago,3,55079 55092 55013 55025,1840009992
St. Francis,St. Francis,MN,Minnesota,27003,Anoka,45.3991,-93.3902,7916,131,polygon,FALSE,TRUE,America/Chicago,3,55330 55070,1840008905
Crookston,Crookston,MN,Minnesota,27119,Polk,47.7747,-96.6062,7835,579,polygon,FALSE,TRUE,America/Chicago,3,56716,1840006604
Waite Park,Waite Park,MN,Minnesota,27145,Stearns,45.5313,-94.2528,7768,237,polygon,FALSE,TRUE,America/Chicago,3,56387 56301 56388 56399,1840009989
Kasson,Kasson,MN,Minnesota,27039,Dodge,44.0333,-92.7482,7715,824,polygon,FALSE,TRUE,America/Chicago,3,55944,1840007913
Albertville,Albertville,MN,Minnesota,27171,Wright,45.2364,-93.6618,7539,658,polygon,FALSE,TRUE,America/Chicago,3,55301,1840006706
St. Joseph,St. Joseph,MN,Minnesota,27145,Stearns,45.5611,-94.3081,7351,691,polygon,FALSE,TRUE,America/Chicago,3,56374 56301,1840008882
Belle Plaine,Belle Plaine,MN,Minnesota,27139,Scott,44.6188,-93.7643,7185,467,polygon,FALSE,TRUE,America/Chicago,3,56011,1840006775
Spring Lake Park,Spring Lake Park,MN,Minnesota,27003,Anoka,45.1161,-93.2451,6919,1340,polygon,FALSE,TRUE,America/Chicago,3,55432,1840008903
Medina,Medina,MN,Minnesota,27053,Hennepin,45.0326,-93.5834,6712,101,polygon,FALSE,TRUE,America/Chicago,3,55340 55356 55359,1840007827
Dayton,Dayton,MN,Minnesota,27053,Hennepin,45.1906,-93.4758,6686,110,polygon,FALSE,TRUE,America/Chicago,3,55369 55327,1840006750
Litchfield,Litchfield,MN,Minnesota,27093,Meeker,45.1221,-94.5255,6650,579,polygon,FALSE,TRUE,America/Chicago,3,55355,1840008912
Jordan,Jordan,MN,Minnesota,27139,Scott,44.6652,-93.6351,6402,774,polygon,FALSE,TRUE,America/Chicago,3,55352,1840007864
International Falls,International Falls,MN,Minnesota,27071,Koochiching,48.5884,-93.4083,6382,350,polygon,FALSE,TRUE,America/Winnipeg,3,56649 56679,1840007684
Delano,Delano,MN,Minnesota,27171,Wright,45.0383,-93.7922,6302,579,polygon,FALSE,TRUE,America/Chicago,3,55328,1840006710
Corcoran,Corcoran,MN,Minnesota,27053,Hennepin,45.1089,-93.5837,6250,67,polygon,FALSE,TRUE,America/Chicago,3,55340 55374 55357,1840006744
Isanti,Isanti,MN,Minnesota,27059,Isanti,45.4928,-93.2407,6120,478,polygon,FALSE,TRUE,America/Chicago,3,55040,1840007789
Stewartville,Stewartville,MN,Minnesota,27109,Olmsted,43.8605,-92.4896,6094,727,polygon,FALSE,TRUE,America/Chicago,3,55976,1840008985
Byron,Byron,MN,Minnesota,27109,Olmsted,44.0379,-92.6411,5639,723,polygon,FALSE,TRUE,America/Chicago,3,55920,1840006809
Glencoe,Glencoe,MN,Minnesota,27085,McLeod,44.7699,-94.1512,5544,680,polygon,FALSE,TRUE,America/Chicago,3,55336,1840007845
Falcon Heights,Falcon Heights,MN,Minnesota,27123,Ramsey,44.9899,-93.177,5528,955,polygon,FALSE,TRUE,America/Chicago,3,55113 55108,1840007838
St. Paul Park,St. Paul Park,MN,Minnesota,27163,Washington,44.836,-92.9949,5362,697,polygon,FALSE,TRUE,America/Chicago,3,55071,1840008917
North Oaks,North Oaks,MN,Minnesota,27123,Ramsey,45.1002,-93.0882,5351,298,polygon,FALSE,TRUE,America/Chicago,3,55127,1840007842
Morris,Morris,MN,Minnesota,27149,Stevens,45.5856,-95.9048,5333,440,polygon,FALSE,TRUE,America/Chicago,3,56267,1840007786
Chisago City,Chisago City,MN,Minnesota,27025,Chisago,45.3474,-92.9116,5224,160,polygon,FALSE,TRUE,America/Chicago,3,55013,1840000269
Montrose,Montrose,MN,Minnesota,27171,Wright,45.0668,-93.9206,5208,421,polygon,FALSE,TRUE,America/Chicago,3,55363,1840007796
Lake City,Lake City,MN,Minnesota,27157,Wabasha,44.4453,-92.2796,5162,441,polygon,FALSE,TRUE,America/Chicago,3,55041,1840000321
Carver,Carver,MN,Minnesota,27019,Carver,44.76,-93.6305,5046,440,polygon,FALSE,TRUE,America/Chicago,3,55315 55318,1840006758
Montevideo,Montevideo,MN,Minnesota,27023,Chippewa,44.9505,-95.7153,5043,413,polygon,FALSE,TRUE,America/Chicago,3,56265,1840007837
La Crescent,La Crescent,MN,Minnesota,27055,Houston,43.8299,-91.3043,5029,582,polygon,FALSE,TRUE,America/Chicago,3,55947,1840007938
Oak Park Heights,Oak Park Heights,MN,Minnesota,27163,Washington,45.0324,-92.8099,5003,667,polygon,FALSE,TRUE,America/Chicago,3,55082,1840007812
Princeton,Princeton,MN,Minnesota,27095,Mille Lacs,45.5689,-93.59,4975,383,polygon,FALSE,TRUE,America/Chicago,3,55371,1840008869
Redwood Falls,Redwood Falls,MN,Minnesota,27127,Redwood,44.5471,-95.1031,4963,363,polygon,FALSE,TRUE,America/Chicago,3,56283,1840008961
Becker,Becker,MN,Minnesota,27141,Sherburne,45.3815,-93.8737,4954,181,polygon,FALSE,TRUE,America/Chicago,3,55308,1840006700
Circle Pines,Circle Pines,MN,Minnesota,27003,Anoka,45.1409,-93.1505,4938,1090,polygon,FALSE,TRUE,America/Chicago,3,55014,1840006711
Chisholm,Chisholm,MN,Minnesota,27137,St. Louis,47.4877,-92.8788,4849,417,polygon,FALSE,TRUE,America/Chicago,3,55719,1840006588
Rockford,Rockford,MN,Minnesota,27171,Wright,45.092,-93.7453,4831,687,polygon,FALSE,TRUE,America/Chicago,3,55313 55373,1840008900
Elko New Market,Elko New Market,MN,Minnesota,27139,Scott,44.5667,-93.338,4774,542,polygon,FALSE,TRUE,America/Chicago,3,55020 55054,1840007863
Nowthen,Nowthen,MN,Minnesota,27003,Anoka,45.3421,-93.4495,4741,54,polygon,FALSE,TRUE,America/Chicago,3,55303 55330,1840022338
Wayzata,Wayzata,MN,Minnesota,27053,Hennepin,44.9671,-93.5161,4657,580,polygon,FALSE,TRUE,America/Chicago,3,55391,1840010000
Cold Spring,Cold Spring,MN,Minnesota,27145,Stearns,45.4572,-94.4296,4601,622,polygon,FALSE,TRUE,America/Chicago,3,56320,1840006682
Luverne,Luverne,MN,Minnesota,27133,Rock,43.6533,-96.2146,4531,485,polygon,FALSE,TRUE,America/Chicago,3,56156,1840008995
Watertown,Watertown,MN,Minnesota,27019,Carver,44.9603,-93.8431,4529,665,polygon,FALSE,TRUE,America/Chicago,3,55388,1840010009
Sauk Centre,Sauk Centre,MN,Minnesota,27145,Stearns,45.736,-94.9523,4505,417,polygon,FALSE,TRUE,America/Chicago,3,56378,1840008887
Dilworth,Dilworth,MN,Minnesota,27027,Clay,46.8795,-96.6986,4422,531,polygon,FALSE,TRUE,America/Chicago,3,56529,1840006637
St. James,St. James,MN,Minnesota,27165,Watonwan,43.9832,-94.6249,4400,729,polygon,FALSE,TRUE,America/Chicago,3,56081,1840008994
Windom,Windom,MN,Minnesota,27033,Cottonwood,43.8736,-95.1201,4386,418,polygon,FALSE,TRUE,America/Chicago,3,56101,1840010032
Cokato,Cokato,MN,Minnesota,27171,Wright,45.0771,-94.1879,4326,688,polygon,FALSE,TRUE,America/Chicago,3,55321,1840006705
Park Rapids,Park Rapids,MN,Minnesota,27057,Hubbard,46.917,-95.0577,4235,220,polygon,FALSE,TRUE,America/Chicago,3,56470,1840008839
Lonsdale,Lonsdale,MN,Minnesota,27131,Rice,44.4776,-93.422,4207,615,polygon,FALSE,TRUE,America/Chicago,3,55046,1840008969
Scandia,Scandia,MN,Minnesota,27163,Washington,45.254,-92.8278,4176,46,polygon,FALSE,TRUE,America/Chicago,3,55073 55047,1840008918
Rice Lake,Rice Lake,MN,Minnesota,27137,St. Louis,46.8977,-92.1137,4139,49,polygon,FALSE,TRUE,America/Chicago,3,55803,1840032021
Columbus,Columbus,MN,Minnesota,27003,Anoka,45.2685,-93.081,4130,35,polygon,FALSE,TRUE,America/Chicago,3,55025,1840006713
Grant,Grant,MN,Minnesota,27163,Washington,45.0825,-92.909,4116,63,polygon,FALSE,TRUE,America/Chicago,3,55115 55082,1840007809
Goodview,Goodview,MN,Minnesota,27169,Winona,44.0693,-91.7167,4109,719,polygon,FALSE,TRUE,America/Chicago,3,55959 55987,1840007920
Wadena,Wadena,MN,Minnesota,27159,Wadena,46.4452,-95.1281,4105,293,polygon,FALSE,TRUE,America/Chicago,3,56482,1840009971
Le Sueur,Le Sueur,MN,Minnesota,27079,Le Sueur,44.4704,-93.9025,4057,302,polygon,FALSE,TRUE,America/Chicago,3,56058,1840007887
Cannon Falls,Cannon Falls,MN,Minnesota,27049,Goodhue,44.5122,-92.9034,4050,348,polygon,FALSE,TRUE,America/Chicago,3,55009,1840006778
Pipestone,Pipestone,MN,Minnesota,27117,Pipestone,43.9958,-96.3117,4046,376,polygon,FALSE,TRUE,America/Chicago,3,56164,1840008980
Centerville,Centerville,MN,Minnesota,27003,Anoka,45.164,-93.054,4002,727,polygon,FALSE,TRUE,America/Chicago,3,55038,1840006715
Deephaven,Deephaven,MN,Minnesota,27053,Hennepin,44.9318,-93.5293,3928,652,polygon,FALSE,TRUE,America/Chicago,3,55331 55391,1840006751
St. Augusta,St. Augusta,MN,Minnesota,27145,Stearns,45.4497,-94.1996,3835,49,polygon,FALSE,TRUE,America/Chicago,3,55320 56301 56397 56398,1840008880
Independence,Independence,MN,Minnesota,27053,Hennepin,45.0219,-93.7077,3803,45,polygon,FALSE,TRUE,America/Chicago,3,55359 55572 55577 55592 55593 55599,1840007834
Norwood Young America,Norwood Young America,MN,Minnesota,27019,Carver,44.7721,-93.9192,3769,609,polygon,FALSE,TRUE,America/Chicago,3,55397 55368 55554,1840007849
Bayport,Bayport,MN,Minnesota,27163,Washington,45.0152,-92.7789,3765,825,polygon,FALSE,TRUE,America/Chicago,3,55003,1840006737
St. Charles,St. Charles,MN,Minnesota,27169,Winona,43.9688,-92.0591,3758,378,polygon,FALSE,TRUE,America/Chicago,3,55972,1840008991
Melrose,Melrose,MN,Minnesota,27145,Stearns,45.6757,-94.8128,3656,444,polygon,FALSE,TRUE,America/Chicago,3,56352,1840007782
Mora,Mora,MN,Minnesota,27065,Kanabec,45.8768,-93.2914,3653,265,polygon,FALSE,TRUE,America/Chicago,3,55051,1840007765
Perham,Perham,MN,Minnesota,27111,Otter Tail,46.6,-95.5773,3645,396,polygon,FALSE,TRUE,America/Chicago,3,56573,1840008852
New London,New London,MN,Minnesota,27067,Kandiyohi,45.2975,-94.9476,3619,435,polygon,FALSE,TRUE,America/Chicago,3,56288 56273,1840007801
Newport,Newport,MN,Minnesota,27163,Washington,44.8744,-92.9975,3588,382,polygon,FALSE,TRUE,America/Chicago,3,55055,1840007811
Eveleth,Eveleth,MN,Minnesota,27137,St. Louis,47.4637,-92.5443,3569,218,polygon,FALSE,TRUE,America/Chicago,3,55734,1840007687
Annandale,Annandale,MN,Minnesota,27171,Wright,45.2598,-94.1205,3554,448,polygon,FALSE,TRUE,America/Chicago,3,55302,1840006707
Two Harbors,Two Harbors,MN,Minnesota,27075,Lake,47.03,-91.675,3529,416,polygon,FALSE,TRUE,America/Chicago,3,55616,1840009960
Hanover,Hanover,MN,Minnesota,27171,Wright,45.158,-93.6631,3507,248,polygon,FALSE,TRUE,America/Chicago,3,55341,1840006708
Zumbrota,Zumbrota,MN,Minnesota,27049,Goodhue,44.295,-92.6734,3501,494,polygon,FALSE,TRUE,America/Chicago,3,55992,1840000306
Pine Island,Pine Island,MN,Minnesota,27049,Goodhue,44.197,-92.6165,3475,230,polygon,FALSE,TRUE,America/Chicago,3,55963,1840008958
Crosby,Crosby,MN,Minnesota,27035,Crow Wing,46.4892,-93.9573,3385,303,polygon,FALSE,TRUE,America/Chicago,3,56441,1840006640
Sleepy Eye,Sleepy Eye,MN,Minnesota,27015,Brown,44.2988,-94.7235,3356,705,polygon,FALSE,TRUE,America/Chicago,3,56085,1840008970
Ely,Ely,MN,Minnesota,27137,St. Louis,47.9054,-91.8517,3355,443,polygon,FALSE,TRUE,America/Chicago,3,55731,1840007686
Long Prairie,Long Prairie,MN,Minnesota,27153,Todd,45.9775,-94.8629,3301,465,polygon,FALSE,TRUE,America/Chicago,3,56347,1840008859
Plainview,Plainview,MN,Minnesota,27157,Wabasha,44.1648,-92.1697,3298,594,polygon,FALSE,TRUE,America/Chicago,3,55964,1840008973
Rush City,Rush City,MN,Minnesota,27025,Chisago,45.6875,-92.9654,3218,291,polygon,FALSE,TRUE,America/Chicago,3,55069,1840000270
Jackson,Jackson,MN,Minnesota,27063,Jackson,43.6288,-94.9886,3179,258,polygon,FALSE,TRUE,America/Chicago,3,56143,1840007942
Breckenridge,Breckenridge,MN,Minnesota,27167,Wilkin,46.2662,-96.585,3172,484,polygon,FALSE,TRUE,America/Chicago,3,56520,1840004003
Moose Lake,Moose Lake,MN,Minnesota,27017,Carlton,46.4445,-92.7634,3151,353,polygon,FALSE,TRUE,America/Chicago,3,55767,1840007743
Pine City,Pine City,MN,Minnesota,27115,Pine,45.8367,-92.9683,3146,315,polygon,FALSE,TRUE,America/Chicago,3,55063,1840000237
Blue Earth,Blue Earth,MN,Minnesota,27043,Faribault,43.6404,-94.1004,3108,378,polygon,FALSE,TRUE,America/Chicago,3,56013,1840006841
Eagle Lake,Eagle Lake,MN,Minnesota,27013,Blue Earth,44.1616,-93.8846,3087,771,polygon,FALSE,TRUE,America/Chicago,3,56024,1840007903
Montgomery,Montgomery,MN,Minnesota,27079,Le Sueur,44.4452,-93.5797,3050,471,polygon,FALSE,TRUE,America/Chicago,3,56069,1840007883
Benson,Benson,MN,Minnesota,27151,Swift,45.3152,-95.6058,3043,378,polygon,FALSE,TRUE,America/Chicago,3,56215,1840006727
Greenfield,Greenfield,MN,Minnesota,27053,Hennepin,45.0997,-93.6884,3038,57,polygon,FALSE,TRUE,America/Chicago,3,55373 55357,1840007825
Proctor,Proctor,MN,Minnesota,27137,St. Louis,46.7416,-92.2276,3028,357,polygon,FALSE,TRUE,America/Chicago,3,55810,1840008818
Afton,Afton,MN,Minnesota,27163,Washington,44.9042,-92.8174,3028,46,polygon,FALSE,TRUE,America/Chicago,3,55001,1840006736
Staples,Staples,MN,Minnesota,27153,Todd,46.369,-94.8018,3000,243,polygon,FALSE,TRUE,America/Chicago,3,56479,1840008860
Milaca,Milaca,MN,Minnesota,27095,Mille Lacs,45.7573,-93.6522,2930,342,polygon,FALSE,TRUE,America/Chicago,3,56353,1840007761
Mountain Iron,Mountain Iron,MN,Minnesota,27137,St. Louis,47.5473,-92.6252,2834,16,polygon,FALSE,TRUE,America/Chicago,3,55768,1840007692
Chatfield,Chatfield,MN,Minnesota,27045,Fillmore,43.8445,-92.1829,2829,421,polygon,FALSE,TRUE,America/Chicago,3,55923,1840006837
Roseau,Roseau,MN,Minnesota,27135,Roseau,48.8446,-95.7623,2804,390,polygon,FALSE,TRUE,America/Chicago,3,56751,1840008814
Albany,Albany,MN,Minnesota,27145,Stearns,45.6284,-94.5677,2769,491,polygon,FALSE,TRUE,America/Chicago,3,56307,1840006683
Dodge Center,Dodge Center,MN,Minnesota,27039,Dodge,44.0289,-92.8507,2768,509,polygon,FALSE,TRUE,America/Chicago,3,55927,1840006808
Caledonia,Caledonia,MN,Minnesota,27055,Houston,43.6344,-91.5009,2753,376,polygon,FALSE,TRUE,America/Chicago,3,55921,1840006833
Osseo,Osseo,MN,Minnesota,27053,Hennepin,45.1179,-93.3992,2738,1424,polygon,FALSE,TRUE,America/Chicago,3,55369 55569,1840008928
Cohasset,Cohasset,MN,Minnesota,27061,Itasca,47.2389,-93.6396,2725,39,polygon,FALSE,TRUE,America/Chicago,3,55744 55721,1840006610
Granite Falls,Granite Falls,MN,Minnesota,27173,Yellow Medicine,44.8107,-95.5375,2698,294,polygon,FALSE,TRUE,America/Chicago,3,56241,1840007851
Foley,Foley,MN,Minnesota,27009,Benton,45.6636,-93.9095,2673,403,polygon,FALSE,TRUE,America/Chicago,3,56329,1840007776
Lexington,Lexington,MN,Minnesota,27003,Anoka,45.1381,-93.1714,2652,1485,polygon,FALSE,TRUE,America/Chicago,3,55014,1840007800
Sandstone,Sandstone,MN,Minnesota,27115,Pine,46.1292,-92.8646,2639,193,polygon,FALSE,TRUE,America/Chicago,3,55072,1840008858
Glenwood,Glenwood,MN,Minnesota,27121,Pope,45.6517,-95.3643,2611,181,polygon,FALSE,TRUE,America/Chicago,3,56334,1840007788
Barnesville,Barnesville,MN,Minnesota,27027,Clay,46.6501,-96.4164,2602,485,polygon,FALSE,TRUE,America/Chicago,3,56514,1840006634
Rockville,Rockville,MN,Minnesota,27145,Stearns,45.465,-94.3222,2585,35,polygon,FALSE,TRUE,America/Chicago,3,56320 56369 56301,1840008877
Pelican Rapids,Pelican Rapids,MN,Minnesota,27111,Otter Tail,46.5701,-96.086,2552,388,polygon,FALSE,TRUE,America/Chicago,3,56572,1840008851
Lauderdale,Lauderdale,MN,Minnesota,27123,Ramsey,44.9942,-93.2026,2521,2322,polygon,FALSE,TRUE,America/Chicago,2,55113 55108,1840007844
Paynesville,Paynesville,MN,Minnesota,27145,Stearns,45.3786,-94.7216,2519,422,polygon,FALSE,TRUE,America/Chicago,3,56362,1840008875
Le Center,Le Center,MN,Minnesota,27079,Le Sueur,44.3866,-93.7311,2516,578,polygon,FALSE,TRUE,America/Chicago,3,56057,1840007886
Lake Crystal,Lake Crystal,MN,Minnesota,27013,Blue Earth,44.1054,-94.2188,2495,558,polygon,FALSE,TRUE,America/Chicago,3,56055,1840007905
Wabasha,Wabasha,MN,Minnesota,27157,Wabasha,44.3707,-92.042,2473,116,polygon,FALSE,TRUE,America/Chicago,3,55981,1840010023
Breezy Point,Breezy Point,MN,Minnesota,27035,Crow Wing,46.6081,-94.218,2413,79,polygon,FALSE,TRUE,America/Chicago,3,56472,1840004002
Spring Valley,Spring Valley,MN,Minnesota,27045,Fillmore,43.6888,-92.3897,2410,316,polygon,FALSE,TRUE,America/Chicago,3,55975,1840009010
St. Bonifacius,St. Bonifacius,MN,Minnesota,27053,Hennepin,44.9054,-93.7476,2374,881,polygon,FALSE,TRUE,America/Chicago,3,55375,1840008934
Crosslake,Crosslake,MN,Minnesota,27035,Crow Wing,46.6755,-94.0955,2354,35,polygon,FALSE,TRUE,America/Chicago,3,56442,1840031784
Excelsior,Excelsior,MN,Minnesota,27053,Hennepin,44.9025,-93.5663,2340,1435,polygon,FALSE,TRUE,America/Chicago,3,55331,1840007823
Olivia,Olivia,MN,Minnesota,27129,Renville,44.777,-94.9971,2335,363,polygon,FALSE,TRUE,America/Chicago,3,56277,1840008952
Pequot Lakes,Pequot Lakes,MN,Minnesota,27035,Crow Wing,46.5875,-94.2983,2299,54,polygon,FALSE,TRUE,America/Chicago,3,56472,1840008845
Mayer,Mayer,MN,Minnesota,27019,Carver,44.8868,-93.8904,2266,637,polygon,FALSE,TRUE,America/Chicago,3,55360,1840007847
Madelia,Madelia,MN,Minnesota,27165,Watonwan,44.0482,-94.4198,2254,572,polygon,FALSE,TRUE,America/Chicago,3,56062,1840008992
Janesville,Janesville,MN,Minnesota,27161,Waseca,44.1214,-93.7107,2252,496,polygon,FALSE,TRUE,America/Chicago,3,56048,1840007915
Winsted,Winsted,MN,Minnesota,27085,McLeod,44.9574,-94.0498,2240,457,polygon,FALSE,TRUE,America/Chicago,3,55395,1840010006
Gaylord,Gaylord,MN,Minnesota,27143,Sibley,44.5555,-94.2123,2207,501,polygon,FALSE,TRUE,America/Chicago,3,55334,1840007865
Hawley,Hawley,MN,Minnesota,27027,Clay,46.877,-96.318,2198,345,polygon,FALSE,TRUE,America/Chicago,3,56549,1840006635
Wells,Wells,MN,Minnesota,27043,Faribault,43.7432,-93.7278,2169,428,polygon,FALSE,TRUE,America/Chicago,3,56097,1840010043
Maple Lake,Maple Lake,MN,Minnesota,27171,Wright,45.2334,-94.0059,2148,369,polygon,FALSE,TRUE,America/Chicago,3,55358,1840008897
Arlington,Arlington,MN,Minnesota,27143,Sibley,44.6083,-94.0766,2146,506,polygon,FALSE,TRUE,America/Chicago,3,55307,1840006776
Howard Lake,Howard Lake,MN,Minnesota,27171,Wright,45.0604,-94.067,2136,444,polygon,FALSE,TRUE,America/Chicago,3,55349 55575,1840006709
Maple Plain,Maple Plain,MN,Minnesota,27053,Hennepin,45.0088,-93.6618,2114,766,polygon,FALSE,TRUE,America/Chicago,3,55359,1840008924
Nisswa,Nisswa,MN,Minnesota,27035,Crow Wing,46.5003,-94.2977,2096,75,polygon,FALSE,TRUE,America/Chicago,3,56468,1840007740
Tracy,Tracy,MN,Minnesota,27083,Lyon,44.239,-95.6153,2077,334,polygon,FALSE,TRUE,America/Chicago,3,56175,1840010020
Esko,Esko,MN,Minnesota,27017,Carlton,46.71,-92.3721,2042,162,polygon,FALSE,FALSE,America/Chicago,3,55733,1840025266
Mountain Lake,Mountain Lake,MN,Minnesota,27033,Cottonwood,43.9414,-94.9273,2037,521,polygon,FALSE,TRUE,America/Chicago,3,56159,1840007917
Springfield,Springfield,MN,Minnesota,27015,Brown,44.2372,-94.9819,2004,412,polygon,FALSE,TRUE,America/Chicago,3,56087,1840008971
Eyota,Eyota,MN,Minnesota,27109,Olmsted,43.9883,-92.2321,2001,457,polygon,FALSE,TRUE,America/Chicago,3,55934,1840007916
Aitkin,Aitkin,MN,Minnesota,27001,Aitkin,46.5289,-93.7067,1985,296,polygon,FALSE,TRUE,America/Chicago,3,56431,1840006638
Slayton,Slayton,MN,Minnesota,27101,Murray,43.9902,-95.7578,1974,390,polygon,FALSE,TRUE,America/Chicago,3,56172,1840008982
Coleraine,Coleraine,MN,Minnesota,27061,Itasca,47.2638,-93.4524,1972,49,polygon,FALSE,TRUE,America/Chicago,3,55786 55709 55744 55722,1840006611
Hoyt Lakes,Hoyt Lakes,MN,Minnesota,27137,St. Louis,47.5598,-92.1157,1946,13,polygon,FALSE,TRUE,America/Chicago,3,55750,1840006595
Blooming Prairie,Blooming Prairie,MN,Minnesota,27147,Steele,43.8683,-93.0552,1936,523,polygon,FALSE,TRUE,America/Chicago,3,55917,1840006805
Hinckley,Hinckley,MN,Minnesota,27115,Pine,46.0122,-92.9256,1928,193,polygon,FALSE,TRUE,America/Chicago,3,55037,1840006662
Waterville,Waterville,MN,Minnesota,27079,Le Sueur,44.2236,-93.5747,1892,429,polygon,FALSE,TRUE,America/Chicago,3,56096,1840010021
Lakeland,Lakeland,MN,Minnesota,27163,Washington,44.9503,-92.77,1819,339,polygon,FALSE,TRUE,America/Chicago,3,55043,1840007816
Clearwater,Clearwater,MN,Minnesota,27171,Wright,45.4102,-94.0446,1818,445,polygon,FALSE,TRUE,America/Chicago,3,55320,1840006704
Long Lake,Long Lake,MN,Minnesota,27053,Hennepin,44.9841,-93.5689,1816,819,polygon,FALSE,TRUE,America/Chicago,3,55356,1840008921
Braham,Braham,MN,Minnesota,27059,Isanti,45.7223,-93.1717,1816,435,polygon,FALSE,TRUE,America/Chicago,3,55006,1840006693
Kenyon,Kenyon,MN,Minnesota,27049,Goodhue,44.2726,-92.9858,1801,301,polygon,FALSE,TRUE,America/Chicago,3,55946,1840007870
Cologne,Cologne,MN,Minnesota,27019,Carver,44.7696,-93.7931,1797,388,polygon,FALSE,TRUE,America/Chicago,3,55322,1840006757
Warroad,Warroad,MN,Minnesota,27135,Roseau,48.9169,-95.3272,1795,228,polygon,FALSE,TRUE,America/Chicago,3,56763,1840009952
Red Lake,Red Lake,MN,Minnesota,27007,Beltrami,47.8707,-95.0052,1787,142,polygon,FALSE,FALSE,America/Chicago,3,56671,1840003994
Spring Park,Spring Park,MN,Minnesota,27053,Hennepin,44.9364,-93.6319,1784,1951,polygon,FALSE,TRUE,America/Chicago,3,55384,1840008926
Ortonville,Ortonville,MN,Minnesota,27011,Big Stone,45.3017,-96.4415,1782,164,polygon,FALSE,TRUE,America/Chicago,3,56278,1840008896
Gilbert,Gilbert,MN,Minnesota,27137,St. Louis,47.4913,-92.4612,1780,58,polygon,FALSE,TRUE,America/Chicago,3,55734 55741,1840007689
Silver Bay,Silver Bay,MN,Minnesota,27075,Lake,47.294,-91.278,1762,89,polygon,FALSE,TRUE,America/Chicago,3,55614,1840008824
Osakis,Osakis,MN,Minnesota,27041,Douglas,45.8649,-95.1524,1744,348,polygon,FALSE,TRUE,America/Chicago,3,56360,1840008871
Lester Prairie,Lester Prairie,MN,Minnesota,27085,McLeod,44.8829,-94.0374,1728,748,polygon,FALSE,TRUE,America/Chicago,3,55354,1840007846
Rushford,Rushford,MN,Minnesota,27045,Fillmore,43.8131,-91.7535,1695,396,polygon,FALSE,TRUE,America/Chicago,3,55971,1840009014
Mapleton,Mapleton,MN,Minnesota,27013,Blue Earth,43.9267,-93.9544,1692,466,polygon,FALSE,TRUE,America/Chicago,3,56065,1840008976
Canby,Canby,MN,Minnesota,27173,Yellow Medicine,44.7157,-96.269,1671,284,polygon,FALSE,TRUE,America/Chicago,3,56220,1840006763
Rock Creek,Rock Creek,MN,Minnesota,27115,Pine,45.7604,-92.9088,1652,14,polygon,FALSE,TRUE,America/Chicago,3,55063 55069 55067,1840008856
Dundas,Dundas,MN,Minnesota,27131,Rice,44.4276,-93.2039,1646,345,polygon,FALSE,TRUE,America/Chicago,3,55019,1840007888
Aurora,Aurora,MN,Minnesota,27137,St. Louis,47.5312,-92.2399,1626,165,polygon,FALSE,TRUE,America/Chicago,3,55705,1840006590
Lakefield,Lakefield,MN,Minnesota,27063,Jackson,43.678,-95.1695,1615,465,polygon,FALSE,TRUE,America/Chicago,3,56150,1840007943
Waverly,Waverly,MN,Minnesota,27171,Wright,45.065,-93.9663,1603,353,polygon,FALSE,TRUE,America/Chicago,3,55390,1840009994
Avon,Avon,MN,Minnesota,27145,Stearns,45.6101,-94.4619,1590,374,polygon,FALSE,TRUE,America/Chicago,3,56310,1840006684
Tonka Bay,Tonka Bay,MN,Minnesota,27053,Hennepin,44.9167,-93.5886,1568,644,polygon,FALSE,TRUE,America/Chicago,3,55331,1840009999
Ada,Ada,MN,Minnesota,27107,Norman,47.2992,-96.5165,1563,445,polygon,FALSE,TRUE,America/Chicago,3,56510,1840006617
Warren,Warren,MN,Minnesota,27089,Marshall,48.194,-96.7688,1552,411,polygon,FALSE,TRUE,America/Chicago,3,56762,1840009957
Lewiston,Lewiston,MN,Minnesota,27169,Winona,43.9823,-91.8695,1547,471,polygon,FALSE,TRUE,America/Chicago,3,55952,1840007921
Oronoco,Oronoco,MN,Minnesota,27109,Olmsted,44.1598,-92.5401,1525,202,polygon,FALSE,TRUE,America/Chicago,3,55960,1840008986
Stacy,Stacy,MN,Minnesota,27025,Chisago,45.3841,-92.9938,1518,181,polygon,FALSE,TRUE,America/Chicago,3,55079 55092 55078,1840008894
Babbitt,Babbitt,MN,Minnesota,27137,St. Louis,47.6445,-91.9458,1484,5,polygon,FALSE,TRUE,America/Chicago,3,55706,1840006591
Richmond,Richmond,MN,Minnesota,27145,Stearns,45.4547,-94.5135,1470,480,polygon,FALSE,TRUE,America/Chicago,3,56368,1840008876
Fosston,Fosston,MN,Minnesota,27119,Polk,47.5855,-95.7579,1464,276,polygon,FALSE,TRUE,America/Chicago,3,56542,1840007704
Dassel,Dassel,MN,Minnesota,27093,Meeker,45.083,-94.315,1449,339,polygon,FALSE,TRUE,America/Chicago,3,55325,1840006733
Red Lake Falls,Red Lake Falls,MN,Minnesota,27125,Red Lake,47.8837,-96.2727,1418,260,polygon,FALSE,TRUE,America/Chicago,3,56750,1840008829
Bagley,Bagley,MN,Minnesota,27029,Clearwater,47.5239,-95.4041,1406,273,polygon,FALSE,TRUE,America/Chicago,3,56621,1840006608
Dawson,Dawson,MN,Minnesota,27073,Lac qui Parle,44.9289,-96.0504,1400,378,polygon,FALSE,TRUE,America/Chicago,3,56232,1840006743
Madison,Madison,MN,Minnesota,27073,Lac qui Parle,45.0127,-96.1889,1400,515,polygon,FALSE,TRUE,America/Chicago,3,56256,1840008920
Frazee,Frazee,MN,Minnesota,27005,Becker,46.7282,-95.7026,1391,486,polygon,FALSE,TRUE,America/Chicago,3,56544,1840007725
Rice,Rice,MN,Minnesota,27009,Benton,45.7525,-94.2317,1391,94,polygon,FALSE,TRUE,America/Chicago,3,56367,1840008872
Glyndon,Glyndon,MN,Minnesota,27027,Clay,46.8709,-96.5784,1373,335,polygon,FALSE,TRUE,America/Chicago,3,56547,1840007730
Pierz,Pierz,MN,Minnesota,27097,Morrison,45.9772,-94.1008,1365,382,polygon,FALSE,TRUE,America/Chicago,3,56364,1840008864
Grand Marais,Grand Marais,MN,Minnesota,27031,Cook,47.7586,-90.3443,1357,180,polygon,FALSE,TRUE,America/Chicago,3,55604,1840008810
Minneota,Minneota,MN,Minnesota,27083,Lyon,44.5626,-95.9827,1356,360,polygon,FALSE,TRUE,America/Chicago,3,56264,1840007880
Winthrop,Winthrop,MN,Minnesota,27143,Sibley,44.5427,-94.361,1347,440,polygon,FALSE,TRUE,America/Chicago,3,55396,1840010013
Winnebago,Winnebago,MN,Minnesota,27043,Faribault,43.7644,-94.1703,1340,220,polygon,FALSE,TRUE,America/Chicago,3,56098,1840010044
Hayfield,Hayfield,MN,Minnesota,27039,Dodge,43.8903,-92.8471,1337,409,polygon,FALSE,TRUE,America/Chicago,3,55940,1840006807
Appleton,Appleton,MN,Minnesota,27151,Swift,45.1997,-96.0225,1325,273,polygon,FALSE,TRUE,America/Chicago,3,56208,1840006726
Menahga,Menahga,MN,Minnesota,27159,Wadena,46.7471,-95.1012,1302,135,polygon,FALSE,TRUE,America/Chicago,3,56464,1840007734
Preston,Preston,MN,Minnesota,27045,Fillmore,43.6726,-92.0828,1289,201,polygon,FALSE,TRUE,America/Chicago,3,55965,1840009013
Wheaton,Wheaton,MN,Minnesota,27155,Traverse,45.8059,-96.498,1288,286,polygon,FALSE,TRUE,America/Chicago,3,56296,1840009987
Clara City,Clara City,MN,Minnesota,27023,Chippewa,44.9583,-95.3672,1276,280,polygon,FALSE,TRUE,America/Chicago,3,56222,1840000294
Starbuck,Starbuck,MN,Minnesota,27121,Pope,45.6121,-95.5333,1270,305,polygon,FALSE,TRUE,America/Chicago,3,56381,1840008890
Spring Grove,Spring Grove,MN,Minnesota,27055,Houston,43.5607,-91.637,1266,489,polygon,FALSE,TRUE,America/Chicago,3,55974,1840009008
Medford,Medford,MN,Minnesota,27147,Steele,44.1685,-93.2472,1256,405,polygon,FALSE,TRUE,America/Chicago,3,55049,1840007912
Cottonwood,Cottonwood,MN,Minnesota,27083,Lyon,44.6106,-95.672,1236,479,polygon,FALSE,TRUE,America/Chicago,3,56229,1840006786
Royalton,Royalton,MN,Minnesota,27097,Morrison,45.8302,-94.2931,1233,246,polygon,FALSE,TRUE,America/Chicago,3,56373,1840008866
Mahnomen,Mahnomen,MN,Minnesota,27087,Mahnomen,47.3146,-95.9673,1231,453,polygon,FALSE,TRUE,America/Chicago,3,56557,1840008832
New York Mills,New York Mills,MN,Minnesota,27111,Otter Tail,46.5198,-95.3733,1223,324,polygon,FALSE,TRUE,America/Chicago,3,56567,1840007748
Spicer,Spicer,MN,Minnesota,27067,Kandiyohi,45.2329,-94.9401,1222,398,polygon,FALSE,TRUE,America/Chicago,3,56288,1840008906
Adrian,Adrian,MN,Minnesota,27105,Nobles,43.6332,-95.933,1218,404,polygon,FALSE,TRUE,America/Chicago,3,56110,1840006820
Mantorville,Mantorville,MN,Minnesota,27039,Dodge,44.0656,-92.7537,1210,333,polygon,FALSE,TRUE,America/Chicago,3,55955,1840008984
Fulda,Fulda,MN,Minnesota,27101,Murray,43.8691,-95.6023,1208,460,polygon,FALSE,TRUE,America/Chicago,3,56131,1840007908
Grand Meadow,Grand Meadow,MN,Minnesota,27099,Mower,43.7062,-92.5702,1192,674,polygon,FALSE,TRUE,America/Chicago,3,55936,1840007935
Renville,Renville,MN,Minnesota,27129,Renville,44.7908,-95.2048,1189,346,polygon,FALSE,TRUE,America/Chicago,3,56284,1840008953
Harris,Harris,MN,Minnesota,27025,Chisago,45.5976,-92.9869,1186,22,polygon,FALSE,TRUE,America/Chicago,3,55069 55032,1840006694
New Richland,New Richland,MN,Minnesota,27161,Waseca,43.8938,-93.4939,1182,766,polygon,FALSE,TRUE,America/Chicago,3,56072,1840007914
Goodhue,Goodhue,MN,Minnesota,27049,Goodhue,44.4007,-92.6255,1177,493,polygon,FALSE,TRUE,America/Chicago,3,55027,1840007869
Madison Lake,Madison Lake,MN,Minnesota,27013,Blue Earth,44.2044,-93.8162,1174,428,polygon,FALSE,TRUE,America/Chicago,3,56063,1840008974
Little Rock,Little Rock,MN,Minnesota,27007,Beltrami,47.8667,-95.106,1170,62,polygon,FALSE,FALSE,America/Chicago,3,56671,1840032019
Nicollet,Nicollet,MN,Minnesota,27103,Nicollet,44.2747,-94.1885,1169,477,polygon,FALSE,TRUE,America/Chicago,3,56074,1840007895
Elbow Lake,Elbow Lake,MN,Minnesota,27051,Grant,45.9905,-95.9776,1153,334,polygon,FALSE,TRUE,America/Chicago,3,56531,1840007766
Redby,Redby,MN,Minnesota,27007,Beltrami,47.8717,-94.9184,1143,82,polygon,FALSE,FALSE,America/Chicago,3,56671 56670,1840003995
Fairfax,Fairfax,MN,Minnesota,27129,Renville,44.5283,-94.7231,1131,333,polygon,FALSE,TRUE,America/Chicago,3,55332,1840007860
Dellwood,Dellwood,MN,Minnesota,27163,Washington,45.0986,-92.9672,1126,162,polygon,FALSE,TRUE,America/Chicago,3,55110,1840006740
Edgerton,Edgerton,MN,Minnesota,27117,Pipestone,43.8753,-96.1304,1125,368,polygon,FALSE,TRUE,America/Chicago,3,56128,1840007906
Atwater,Atwater,MN,Minnesota,27067,Kandiyohi,45.1356,-94.7769,1119,420,polygon,FALSE,TRUE,America/Chicago,3,56209,1840006722
Shafer,Shafer,MN,Minnesota,27025,Chisago,45.3901,-92.7531,1117,344,polygon,FALSE,TRUE,America/Chicago,3,55074,1840008893
Sherburn,Sherburn,MN,Minnesota,27091,Martin,43.6547,-94.7273,1087,466,polygon,FALSE,TRUE,America/Chicago,3,56171,1840009016
Elgin,Elgin,MN,Minnesota,27157,Wabasha,44.1257,-92.247,1079,445,polygon,FALSE,TRUE,America/Chicago,3,55932,1840007898
Wanamingo,Wanamingo,MN,Minnesota,27049,Goodhue,44.3026,-92.7872,1078,290,polygon,FALSE,TRUE,America/Chicago,3,55983,1840010014
Lake St. Croix Beach,Lake St. Croix Beach,MN,Minnesota,27163,Washington,44.9245,-92.7657,1076,738,polygon,FALSE,TRUE,America/Chicago,3,55043,1840007815
Tyler,Tyler,MN,Minnesota,27081,Lincoln,44.2785,-96.1355,1069,215,polygon,FALSE,TRUE,America/Chicago,3,56178,1840010019
Lake Shore,Lake Shore,MN,Minnesota,27021,Cass,46.504,-94.3635,1058,32,polygon,FALSE,TRUE,America/Chicago,3,56468,1840007722
Hector,Hector,MN,Minnesota,27129,Renville,44.7412,-94.712,1050,224,polygon,FALSE,TRUE,America/Chicago,3,55342,1840006774
Truman,Truman,MN,Minnesota,27091,Martin,43.8279,-94.4366,1042,366,polygon,FALSE,TRUE,America/Chicago,3,56088,1840010046
Eden Valley,Eden Valley,MN,Minnesota,27093,Meeker,45.3263,-94.5453,1039,329,polygon,FALSE,TRUE,America/Chicago,3,55329,1840007806
East Gull Lake,East Gull Lake,MN,Minnesota,27021,Cass,46.3948,-94.3548,1039,50,polygon,FALSE,TRUE,America/Chicago,3,56401,1840007720
Taylors Falls,Taylors Falls,MN,Minnesota,27025,Chisago,45.4121,-92.6644,1034,101,polygon,FALSE,TRUE,America/Chicago,3,55084,1840008895
Carlton,Carlton,MN,Minnesota,27017,Carlton,46.6635,-92.407,1033,104,polygon,FALSE,TRUE,America/Chicago,3,55718 55733,1840006648
Baudette,Baudette,MN,Minnesota,27077,Lake of the Woods,48.7119,-94.5925,1020,93,polygon,FALSE,TRUE,America/Chicago,3,56623,1840007673
Keewatin,Keewatin,MN,Minnesota,27061,Itasca,47.4006,-93.0828,1013,159,polygon,FALSE,TRUE,America/Chicago,3,55769 55746 55753,1840007717
Parkers Prairie,Parkers Prairie,MN,Minnesota,27111,Otter Tail,46.153,-95.329,997,308,polygon,FALSE,TRUE,America/Chicago,3,56361,1840008850
Morristown,Morristown,MN,Minnesota,27131,Rice,44.2239,-93.4445,995,354,polygon,FALSE,TRUE,America/Chicago,3,55052,1840007892
Harmony,Harmony,MN,Minnesota,27045,Fillmore,43.554,-92.0075,987,341,polygon,FALSE,TRUE,America/Chicago,3,55939,1840006838
Buhl,Buhl,MN,Minnesota,27137,St. Louis,47.4994,-92.7692,973,113,polygon,FALSE,TRUE,America/Chicago,3,55713 55710 55758,1840006587
Biwabik,Biwabik,MN,Minnesota,27137,St. Louis,47.5551,-92.3233,969,41,polygon,FALSE,TRUE,America/Chicago,3,55705 55708,1840006592
Houston,Houston,MN,Minnesota,27055,Houston,43.7582,-91.5707,965,296,polygon,FALSE,TRUE,America/Chicago,3,55943,1840006835
Scanlon,Scanlon,MN,Minnesota,27017,Carlton,46.7066,-92.43,959,445,polygon,FALSE,TRUE,America/Chicago,3,55720,1840008848
Bird Island,Bird Island,MN,Minnesota,27129,Renville,44.7648,-94.8949,959,242,polygon,FALSE,TRUE,America/Chicago,3,55310,1840006773
Watkins,Watkins,MN,Minnesota,27093,Meeker,45.3153,-94.412,953,527,polygon,FALSE,TRUE,America/Chicago,3,55389,1840009996
Nashwauk,Nashwauk,MN,Minnesota,27061,Itasca,47.3805,-93.1666,952,24,polygon,FALSE,TRUE,America/Chicago,3,55769 55775,1840007716
Walker,Walker,MN,Minnesota,27021,Cass,47.0891,-94.5854,934,141,polygon,FALSE,TRUE,America/Chicago,3,56484,1840009967
Le Roy,Le Roy,MN,Minnesota,27099,Mower,43.5131,-92.5076,932,509,polygon,FALSE,TRUE,America/Chicago,3,55951,1840007936
Henderson,Henderson,MN,Minnesota,27143,Sibley,44.5278,-93.9091,930,334,polygon,FALSE,TRUE,America/Chicago,3,56044,1840006777
Deer River,Deer River,MN,Minnesota,27061,Itasca,47.3409,-93.7961,930,280,polygon,FALSE,TRUE,America/Chicago,3,56636,1840006614
Battle Lake,Battle Lake,MN,Minnesota,27111,Otter Tail,46.2848,-95.7187,929,253,polygon,FALSE,TRUE,America/Chicago,3,56515,1840006652
Pine River,Pine River,MN,Minnesota,27021,Cass,46.7225,-94.3975,927,296,polygon,FALSE,TRUE,America/Chicago,3,56474,1840008837
Hallock,Hallock,MN,Minnesota,27069,Kittson,48.7659,-96.9427,921,166,polygon,FALSE,TRUE,America/Chicago,3,56728,1840006581
Birchwood Village,Birchwood Village,MN,Minnesota,27163,Washington,45.0598,-92.9777,882,999,polygon,FALSE,TRUE,America/Chicago,3,55110,1840073791
St. Stephen,St. Stephen,MN,Minnesota,27145,Stearns,45.701,-94.2742,865,89,polygon,FALSE,TRUE,America/Chicago,3,56375,1840008885
Onamia,Onamia,MN,Minnesota,27095,Mille Lacs,46.07,-93.6676,864,351,polygon,FALSE,TRUE,America/Chicago,3,56359,1840008867
Vineland,Vineland,MN,Minnesota,27095,Mille Lacs,46.1832,-93.7823,861,35,polygon,FALSE,FALSE,America/Chicago,3,56359,1840006673
Lilydale,Lilydale,MN,Minnesota,27037,Dakota,44.9096,-93.1301,846,587,polygon,FALSE,TRUE,America/Chicago,3,55118,1840008947
Mazeppa,Mazeppa,MN,Minnesota,27157,Wabasha,44.2737,-92.5403,845,301,polygon,FALSE,TRUE,America/Chicago,3,55956,1840007899
Morgan,Morgan,MN,Minnesota,27127,Redwood,44.4158,-94.9248,840,587,polygon,FALSE,TRUE,America/Chicago,3,56266,1840007872
Emily,Emily,MN,Minnesota,27035,Crow Wing,46.7602,-93.9665,840,10,polygon,FALSE,TRUE,America/Chicago,3,56447,1840007736
Rushford Village,Rushford Village,MN,Minnesota,27045,Fillmore,43.8033,-91.7915,836,9,polygon,FALSE,TRUE,America/Chicago,3,55962 55971,1840009015
Blackduck,Blackduck,MN,Minnesota,27007,Beltrami,47.7263,-94.5479,833,200,polygon,FALSE,TRUE,America/Chicago,3,56630 56647,1840006601
St. Clair,St. Clair,MN,Minnesota,27013,Blue Earth,44.0838,-93.8601,824,477,polygon,FALSE,TRUE,America/Chicago,3,56001 56080,1840008979
Fertile,Fertile,MN,Minnesota,27119,Polk,47.5339,-96.2893,818,152,polygon,FALSE,TRUE,America/Chicago,3,56540,1840007702
Silver Lake,Silver Lake,MN,Minnesota,27085,McLeod,44.9042,-94.1984,814,776,polygon,FALSE,TRUE,America/Chicago,3,55381,1840008942
Henning,Henning,MN,Minnesota,27111,Otter Tail,46.3233,-95.4424,808,93,polygon,FALSE,TRUE,America/Chicago,3,56551,1840006654
Walnut Grove,Walnut Grove,MN,Minnesota,27127,Redwood,44.225,-95.4692,806,285,polygon,FALSE,TRUE,America/Chicago,3,56180,1840010017
Martin Lake,Martin Lake,MN,Minnesota,27003,Anoka,45.3825,-93.0885,806,225,polygon,FALSE,FALSE,America/Chicago,3,55079,1840025306
Kimball,Kimball,MN,Minnesota,27145,Stearns,45.3143,-94.3008,798,203,polygon,FALSE,TRUE,America/Chicago,3,55353,1840007784
Isle,Isle,MN,Minnesota,27095,Mille Lacs,46.1398,-93.4597,798,121,polygon,FALSE,TRUE,America/Chicago,3,56342 56386,1840007762
Lake Park,Lake Park,MN,Minnesota,27005,Becker,46.8839,-96.0988,793,309,polygon,FALSE,TRUE,America/Chicago,3,56554,1840007727
Adams,Adams,MN,Minnesota,27099,Mower,43.5654,-92.719,790,304,polygon,FALSE,TRUE,America/Chicago,3,55909,1840006829
Clarkfield,Clarkfield,MN,Minnesota,27173,Yellow Medicine,44.7907,-95.8077,787,282,polygon,FALSE,TRUE,America/Chicago,3,56223,1840006762
Bovey,Bovey,MN,Minnesota,27061,Itasca,47.2962,-93.4036,784,132,polygon,FALSE,TRUE,America/Chicago,3,55786 55709,1840006613
Belgrade,Belgrade,MN,Minnesota,27145,Stearns,45.4506,-94.9998,779,250,polygon,FALSE,TRUE,America/Chicago,3,56312,1840006685
Warsaw,Warsaw,MN,Minnesota,27131,Rice,44.2576,-93.3771,774,346,polygon,FALSE,FALSE,America/Chicago,3,55021 55087,1840025368
Dover,Dover,MN,Minnesota,27109,Olmsted,43.9699,-92.1341,770,293,polygon,FALSE,TRUE,America/Chicago,3,55929,1840006810
Lamberton,Lamberton,MN,Minnesota,27127,Redwood,44.2306,-95.2676,768,388,polygon,FALSE,TRUE,America/Chicago,3,56152,1840007873
West Concord,West Concord,MN,Minnesota,27039,Dodge,44.1529,-92.8995,768,273,polygon,FALSE,TRUE,America/Chicago,3,55985,1840010028
Elysian,Elysian,MN,Minnesota,27079,Le Sueur,44.2067,-93.6765,765,247,polygon,FALSE,TRUE,America/Chicago,3,56028,1840007881
Hilltop,Hilltop,MN,Minnesota,27003,Anoka,45.0536,-93.2501,757,2451,polygon,FALSE,TRUE,America/Chicago,2,55421,1840006721
Raymond,Raymond,MN,Minnesota,27067,Kandiyohi,45.0186,-95.2369,756,323,polygon,FALSE,TRUE,America/Chicago,3,56282,1840008910
Cass Lake,Cass Lake,MN,Minnesota,27021,Cass,47.3788,-94.5991,756,253,polygon,FALSE,TRUE,America/Chicago,3,56633,1840006622
Twin Valley,Twin Valley,MN,Minnesota,27107,Norman,47.2589,-96.2592,755,340,polygon,FALSE,TRUE,America/Chicago,3,56584,1840009966
Gibbon,Gibbon,MN,Minnesota,27143,Sibley,44.5333,-94.5242,755,439,polygon,FALSE,TRUE,America/Chicago,3,55335,1840007866
Greenwood,Greenwood,MN,Minnesota,27053,Hennepin,44.9122,-93.555,752,809,polygon,FALSE,TRUE,America/Chicago,3,55331,1840006748
Brooten,Brooten,MN,Minnesota,27145,Stearns,45.5001,-95.1157,750,182,polygon,FALSE,TRUE,America/Chicago,3,56316,1840004017
Mabel,Mabel,MN,Minnesota,27045,Fillmore,43.5198,-91.768,749,600,polygon,FALSE,TRUE,America/Chicago,3,55954,1840009009
Hancock,Hancock,MN,Minnesota,27149,Stevens,45.4977,-95.795,745,318,polygon,FALSE,TRUE,America/Chicago,3,56244,1840006689
Browerville,Browerville,MN,Minnesota,27153,Todd,46.0807,-94.8646,743,270,polygon,FALSE,TRUE,America/Chicago,3,56438,1840004006
Ponemah,Ponemah,MN,Minnesota,27007,Beltrami,48.0348,-94.8983,742,26,polygon,FALSE,FALSE,America/Chicago,3,56666,1840003993
Cleveland,Cleveland,MN,Minnesota,27079,Le Sueur,44.3236,-93.8353,738,521,polygon,FALSE,TRUE,America/Chicago,3,56017,1840006788
Stockton,Stockton,MN,Minnesota,27169,Winona,44.0271,-91.7697,737,167,polygon,FALSE,TRUE,America/Chicago,3,55987 55988,1840008989
Landfall,Landfall,MN,Minnesota,27163,Washington,44.9508,-92.9766,728,4283,polygon,FALSE,TRUE,America/Chicago,2,55128,1840007818
Lanesboro,Lanesboro,MN,Minnesota,27045,Fillmore,43.7181,-91.9719,725,214,polygon,FALSE,TRUE,America/Chicago,3,55949,1840007940
Holdingford,Holdingford,MN,Minnesota,27145,Stearns,45.7298,-94.4717,721,334,polygon,FALSE,TRUE,America/Chicago,3,56340,1840006686
Brownton,Brownton,MN,Minnesota,27085,McLeod,44.7326,-94.3508,720,700,polygon,FALSE,TRUE,America/Chicago,3,55312,1840006754
Karlstad,Karlstad,MN,Minnesota,27069,Kittson,48.578,-96.5169,719,184,polygon,FALSE,TRUE,America/Chicago,3,56732,1840007677
Marine on St. Croix,Marine on St. Croix,MN,Minnesota,27163,Washington,45.1983,-92.7783,712,70,polygon,FALSE,TRUE,America/Chicago,3,55047,1840007810
Clear Lake,Clear Lake,MN,Minnesota,27141,Sherburne,45.4463,-93.9985,707,266,polygon,FALSE,TRUE,America/Chicago,3,55319,1840006699
Kerkhoven,Kerkhoven,MN,Minnesota,27151,Swift,45.1922,-95.3199,706,327,polygon,FALSE,TRUE,America/Chicago,3,56252,1840007805
Westbrook,Westbrook,MN,Minnesota,27033,Cottonwood,44.0422,-95.4376,704,410,polygon,FALSE,TRUE,America/Chicago,3,56183,1840010031
Trimont,Trimont,MN,Minnesota,27091,Martin,43.7611,-94.7162,700,343,polygon,FALSE,TRUE,America/Chicago,3,56176,1840010045
Greenbush,Greenbush,MN,Minnesota,27135,Roseau,48.701,-96.1835,698,177,polygon,FALSE,TRUE,America/Chicago,3,56726,1840007681
Hampton,Hampton,MN,Minnesota,27037,Dakota,44.6085,-93.0025,697,218,polygon,FALSE,TRUE,America/Chicago,3,55031,1840006769
Courtland,Courtland,MN,Minnesota,27103,Nicollet,44.2701,-94.3464,696,102,polygon,FALSE,TRUE,America/Chicago,3,56021,1840006793
Brownsdale,Brownsdale,MN,Minnesota,27099,Mower,43.7401,-92.8675,691,593,polygon,FALSE,TRUE,America/Chicago,3,55918,1840004169
Clarks Grove,Clarks Grove,MN,Minnesota,27047,Freeborn,43.7618,-93.329,687,467,polygon,FALSE,TRUE,America/Chicago,3,56016,1840006822
Buffalo Lake,Buffalo Lake,MN,Minnesota,27129,Renville,44.737,-94.6173,686,377,polygon,FALSE,TRUE,America/Chicago,3,55314,1840006771
Hoffman,Hoffman,MN,Minnesota,27051,Grant,45.8341,-95.787,682,122,polygon,FALSE,TRUE,America/Chicago,3,56339,1840006678
Hendricks,Hendricks,MN,Minnesota,27081,Lincoln,44.5076,-96.4281,675,278,polygon,FALSE,TRUE,America/Chicago,3,56136,1840006785
Kasota,Kasota,MN,Minnesota,27079,Le Sueur,44.2916,-93.9689,672,213,polygon,FALSE,TRUE,America/Chicago,3,56050 56082,1840007884
Ellendale,Ellendale,MN,Minnesota,27147,Steele,43.8727,-93.2993,672,311,polygon,FALSE,TRUE,America/Chicago,3,56026,1840007911
Marble,Marble,MN,Minnesota,27061,Itasca,47.328,-93.294,671,60,polygon,FALSE,TRUE,America/Chicago,3,55709 55764,1840007715
Freeport,Freeport,MN,Minnesota,27145,Stearns,45.6627,-94.6888,669,219,polygon,FALSE,TRUE,America/Chicago,3,56331,1840007779
Sebeka,Sebeka,MN,Minnesota,27159,Wadena,46.629,-95.0878,666,104,polygon,FALSE,TRUE,America/Chicago,3,56477,1840008843
Loretto,Loretto,MN,Minnesota,27053,Hennepin,45.0548,-93.6353,664,993,polygon,FALSE,TRUE,America/Chicago,3,55357,1840008922
Center City,Center City,MN,Minnesota,27025,Chisago,45.3941,-92.8141,664,438,polygon,FALSE,TRUE,America/Chicago,3,55012,1840000268
La Prairie,La Prairie,MN,Minnesota,27061,Itasca,47.2302,-93.4913,660,154,polygon,FALSE,TRUE,America/Chicago,3,55744,1840007718
Motley,Motley,MN,Minnesota,27097,Morrison,46.3349,-94.6423,660,183,polygon,FALSE,TRUE,America/Chicago,3,56466,1840007758
Wabasso,Wabasso,MN,Minnesota,27127,Redwood,44.4025,-95.2554,659,299,polygon,FALSE,TRUE,America/Chicago,3,56293,1840010016
Clarissa,Clarissa,MN,Minnesota,27153,Todd,46.1284,-94.949,653,248,polygon,FALSE,TRUE,America/Chicago,3,56440,1840006665
Hills,Hills,MN,Minnesota,27133,Rock,43.5278,-96.3594,651,399,polygon,FALSE,TRUE,America/Chicago,3,56138,1840006819
Welcome,Welcome,MN,Minnesota,27091,Martin,43.6662,-94.6071,649,172,polygon,FALSE,TRUE,America/Chicago,3,56181,1840010047
Heron Lake,Heron Lake,MN,Minnesota,27063,Jackson,43.798,-95.3198,648,201,polygon,FALSE,TRUE,America/Chicago,3,56137,1840006840
Ottertail,Ottertail,MN,Minnesota,27111,Otter Tail,46.4267,-95.5638,648,58,polygon,FALSE,TRUE,America/Chicago,3,56571,1840008849
Stephen,Stephen,MN,Minnesota,27089,Marshall,48.4518,-96.8769,645,319,polygon,FALSE,TRUE,America/Chicago,3,56757,1840008819
Minnesota Lake,Minnesota Lake,MN,Minnesota,27043,Faribault,43.8408,-93.8279,644,153,polygon,FALSE,TRUE,America/Chicago,3,56068,1840007947
Argyle,Argyle,MN,Minnesota,27089,Marshall,48.3366,-96.8162,642,164,polygon,FALSE,TRUE,America/Chicago,3,56713,1840006597
Rollingstone,Rollingstone,MN,Minnesota,27169,Winona,44.0993,-91.8187,639,566,polygon,FALSE,TRUE,America/Chicago,3,55969,1840008990
Alden,Alden,MN,Minnesota,27047,Freeborn,43.6695,-93.5735,639,255,polygon,FALSE,TRUE,America/Chicago,3,56009,1840006825
Lake Benton,Lake Benton,MN,Minnesota,27081,Lincoln,44.2644,-96.2918,635,62,polygon,FALSE,TRUE,America/Chicago,3,56149,1840007875
Taconite,Taconite,MN,Minnesota,27061,Itasca,47.3315,-93.3758,633,8,polygon,FALSE,TRUE,America/Chicago,3,55786 55709 55764,1840008831
The Lakes,The Lakes,MN,Minnesota,27101,Murray,44.136,-95.7083,631,7,polygon,FALSE,FALSE,America/Chicago,3,56123 56175 56172 56132,1840032018
Randall,Randall,MN,Minnesota,27097,Morrison,46.0887,-94.5007,624,120,polygon,FALSE,TRUE,America/Chicago,3,56475,1840008865
Balaton,Balaton,MN,Minnesota,27083,Lyon,44.2331,-95.8707,624,166,polygon,FALSE,TRUE,America/Chicago,3,56115,1840006787
Glenville,Glenville,MN,Minnesota,27047,Freeborn,43.5738,-93.2817,622,214,polygon,FALSE,TRUE,America/Chicago,3,56036,1840007932
Grove City,Grove City,MN,Minnesota,27093,Meeker,45.148,-94.6815,619,363,polygon,FALSE,TRUE,America/Chicago,3,56243,1840000278
Elmore,Elmore,MN,Minnesota,27043,Faribault,43.5069,-94.0888,616,261,polygon,FALSE,TRUE,America/Chicago,3,56027,1840007945
McIntosh,McIntosh,MN,Minnesota,27119,Polk,47.6369,-95.8864,605,233,polygon,FALSE,TRUE,America/Chicago,3,56556,1840007705
Jasper,Jasper,MN,Minnesota,27117,Pipestone,43.8491,-96.3999,603,228,polygon,FALSE,TRUE,America/Chicago,3,56144,1840007907
Barnum,Barnum,MN,Minnesota,27017,Carlton,46.5054,-92.6884,600,229,polygon,FALSE,TRUE,America/Chicago,3,55707,1840006649
Evansville,Evansville,MN,Minnesota,27041,Douglas,46.0062,-95.6869,598,294,polygon,FALSE,TRUE,America/Chicago,3,56326,1840007768
Racine,Racine,MN,Minnesota,27099,Mower,43.7755,-92.481,593,342,polygon,FALSE,TRUE,America/Chicago,3,55967,1840009005
Littlefork,Littlefork,MN,Minnesota,27071,Koochiching,48.3964,-93.5578,592,192,polygon,FALSE,TRUE,America/Chicago,3,56653,1840008815
Butterfield,Butterfield,MN,Minnesota,27165,Watonwan,43.9586,-94.7938,589,579,polygon,FALSE,TRUE,America/Chicago,3,56120,1840006814
Hill City,Hill City,MN,Minnesota,27001,Aitkin,46.983,-93.5959,585,202,polygon,FALSE,TRUE,America/Chicago,3,55748,1840000191
Minnetonka Beach,Minnetonka Beach,MN,Minnesota,27053,Hennepin,44.9385,-93.5865,581,479,polygon,FALSE,TRUE,America/Chicago,3,55391 55361,1840007832
Verndale,Verndale,MN,Minnesota,27159,Wadena,46.3971,-95.0112,570,224,polygon,FALSE,TRUE,America/Chicago,3,56481,1840009970
White Earth,White Earth,MN,Minnesota,27005,Becker,47.0977,-95.8445,567,64,polygon,FALSE,FALSE,America/Chicago,3,56591 56589 56569,1840006630
Good Thunder,Good Thunder,MN,Minnesota,27013,Blue Earth,44.0067,-94.0703,565,348,polygon,FALSE,TRUE,America/Chicago,3,56037,1840007904
Cook,Cook,MN,Minnesota,27137,St. Louis,47.8414,-92.6888,562,83,polygon,FALSE,TRUE,America/Chicago,3,55723,1840006589
Graceville,Graceville,MN,Minnesota,27011,Big Stone,45.5686,-96.4372,560,373,polygon,FALSE,TRUE,America/Chicago,3,56240,1840007791
Sabin,Sabin,MN,Minnesota,27027,Clay,46.7814,-96.6542,558,468,polygon,FALSE,TRUE,America/Chicago,3,56580,1840008840
Green Isle,Green Isle,MN,Minnesota,27143,Sibley,44.6804,-94.0052,558,212,polygon,FALSE,TRUE,America/Chicago,3,55338,1840007867
Ironton,Ironton,MN,Minnesota,27035,Crow Wing,46.4817,-93.9977,556,148,polygon,FALSE,TRUE,America/Chicago,3,56441 56455,1840007741
Ranier,Ranier,MN,Minnesota,27071,Koochiching,48.6066,-93.353,556,200,polygon,FALSE,TRUE,America/Winnipeg,3,56668 56649,1840008816
Lyle,Lyle,MN,Minnesota,27099,Mower,43.5057,-92.9412,554,281,polygon,FALSE,TRUE,America/Chicago,3,55953,1840009002
Halstad,Halstad,MN,Minnesota,27107,Norman,47.3511,-96.8247,554,705,polygon,FALSE,TRUE,America/Chicago,3,56548,1840006619
Hokah,Hokah,MN,Minnesota,27055,Houston,43.7599,-91.35,547,302,polygon,FALSE,TRUE,America/Chicago,3,55941,1840006834
Ulen,Ulen,MN,Minnesota,27027,Clay,47.0781,-96.2581,544,197,polygon,FALSE,TRUE,America/Chicago,3,56585,1840009969
Sunfish Lake,Sunfish Lake,MN,Minnesota,27037,Dakota,44.8722,-93.0943,544,140,polygon,FALSE,TRUE,America/Chicago,3,55118,1840008949
Stewart,Stewart,MN,Minnesota,27085,McLeod,44.7236,-94.4869,539,257,polygon,FALSE,TRUE,America/Chicago,3,55385,1840008943
Geneva,Geneva,MN,Minnesota,27047,Freeborn,43.8226,-93.2683,537,445,polygon,FALSE,TRUE,America/Chicago,3,56035,1840007931
Claremont,Claremont,MN,Minnesota,27039,Dodge,44.0449,-92.9976,537,189,polygon,FALSE,TRUE,America/Chicago,3,55924,1840006806
Foreston,Foreston,MN,Minnesota,27095,Mille Lacs,45.7321,-93.7095,533,143,polygon,FALSE,TRUE,America/Chicago,3,56330,1840007760
Deerwood,Deerwood,MN,Minnesota,27035,Crow Wing,46.4729,-93.9,532,137,polygon,FALSE,TRUE,America/Chicago,3,56444,1840006645
Ivanhoe,Ivanhoe,MN,Minnesota,27081,Lincoln,44.4651,-96.252,531,230,polygon,FALSE,TRUE,America/Chicago,3,56142,1840007874
Browns Valley,Browns Valley,MN,Minnesota,27155,Traverse,45.5947,-96.8327,528,261,polygon,FALSE,TRUE,America/Chicago,3,56219,1840004013
Floodwood,Floodwood,MN,Minnesota,27137,St. Louis,46.9173,-92.9187,522,132,polygon,FALSE,TRUE,America/Chicago,3,55736,1840007688
Clearbrook,Clearbrook,MN,Minnesota,27029,Clearwater,47.6962,-95.4287,521,390,polygon,FALSE,TRUE,America/Chicago,3,56634,1840006607
Audubon,Audubon,MN,Minnesota,27005,Becker,46.8629,-95.9809,520,364,polygon,FALSE,TRUE,America/Chicago,3,56511,1840006631
Eagle Bend,Eagle Bend,MN,Minnesota,27153,Todd,46.1643,-95.0341,519,148,polygon,FALSE,TRUE,America/Chicago,3,56446,1840007754
Hamburg,Hamburg,MN,Minnesota,27019,Carver,44.7327,-93.9644,517,979,polygon,FALSE,TRUE,America/Chicago,3,55339,1840006761
Pennock,Pennock,MN,Minnesota,27067,Kandiyohi,45.1459,-95.175,513,193,polygon,FALSE,TRUE,America/Chicago,3,56279,1840008908
Willernie,Willernie,MN,Minnesota,27163,Washington,45.054,-92.9571,509,1570,polygon,FALSE,TRUE,America/Chicago,3,55090 55115,1840009997
Amboy,Amboy,MN,Minnesota,27013,Blue Earth,43.888,-94.1582,507,621,polygon,FALSE,TRUE,America/Chicago,3,56010,1840006795
Brownsville,Brownsville,MN,Minnesota,27055,Houston,43.6992,-91.2823,505,105,polygon,FALSE,TRUE,America/Chicago,3,55919,1840006832
Sacred Heart,Sacred Heart,MN,Minnesota,27129,Renville,44.7817,-95.3507,502,195,polygon,FALSE,TRUE,America/Chicago,3,56285,1840008954
Bethel,Bethel,MN,Minnesota,27003,Anoka,45.4022,-93.2711,501,197,polygon,FALSE,TRUE,America/Chicago,3,55005,1840006718
Gem Lake,Gem Lake,MN,Minnesota,27123,Ramsey,45.0579,-93.0405,500,184,polygon,FALSE,TRUE,America/Chicago,3,55110,1840007839
Prinsburg,Prinsburg,MN,Minnesota,27067,Kandiyohi,44.9349,-95.187,498,190,polygon,FALSE,TRUE,America/Chicago,3,56284 56281,1840008909
Lafayette,Lafayette,MN,Minnesota,27103,Nicollet,44.4471,-94.3927,493,151,polygon,FALSE,TRUE,America/Chicago,3,56054,1840007897
Carlos,Carlos,MN,Minnesota,27041,Douglas,45.9741,-95.2925,491,406,polygon,FALSE,TRUE,America/Chicago,3,56319,1840006679
Woodland,Woodland,MN,Minnesota,27053,Hennepin,44.9524,-93.5155,486,325,polygon,FALSE,TRUE,America/Chicago,3,55391,1840010001
Tower,Tower,MN,Minnesota,27137,St. Louis,47.8103,-92.2832,486,62,polygon,FALSE,TRUE,America/Chicago,3,55790,1840009953
Brandon,Brandon,MN,Minnesota,27041,Douglas,45.9663,-95.5945,485,386,polygon,FALSE,TRUE,America/Chicago,3,56315,1840006681
Pillager,Pillager,MN,Minnesota,27021,Cass,46.3295,-94.4796,483,219,polygon,FALSE,TRUE,America/Chicago,3,56473,1840008836
Bertha,Bertha,MN,Minnesota,27153,Todd,46.2671,-95.0618,482,171,polygon,FALSE,TRUE,America/Chicago,3,56437,1840006666
Kandiyohi,Kandiyohi,MN,Minnesota,27067,Kandiyohi,45.1315,-94.9331,481,493,polygon,FALSE,TRUE,America/Chicago,3,56251,1840007802
Altura,Altura,MN,Minnesota,27169,Winona,44.0642,-91.9435,476,61,polygon,FALSE,TRUE,America/Chicago,3,55969 55910,1840006813
Erskine,Erskine,MN,Minnesota,27119,Polk,47.6648,-96.0125,475,249,polygon,FALSE,TRUE,America/Chicago,3,56535,1840007701
Rothsay,Rothsay,MN,Minnesota,27167,Wilkin,46.4735,-96.2845,471,222,polygon,FALSE,TRUE,America/Chicago,3,56579,1840008854
Franklin,Franklin,MN,Minnesota,27129,Renville,44.531,-94.8851,469,168,polygon,FALSE,TRUE,America/Chicago,3,55333,1840007861
Jenkins,Jenkins,MN,Minnesota,27035,Crow Wing,46.6527,-94.3299,469,40,polygon,FALSE,TRUE,America/Chicago,3,56472 56474 56456,1840007742
Brewster,Brewster,MN,Minnesota,27105,Nobles,43.6973,-95.4644,467,130,polygon,FALSE,TRUE,America/Chicago,3,56119,1840004168
Lynd,Lynd,MN,Minnesota,27083,Lyon,44.3973,-95.8812,466,143,polygon,FALSE,TRUE,America/Chicago,3,56157,1840008966
Naytahwaush,Naytahwaush,MN,Minnesota,27087,Mahnomen,47.2704,-95.6334,463,61,polygon,FALSE,FALSE,America/Chicago,3,56566,1840003999
Kiester,Kiester,MN,Minnesota,27043,Faribault,43.5369,-93.7113,462,413,polygon,FALSE,TRUE,America/Chicago,3,56051,1840007948
Danube,Danube,MN,Minnesota,27129,Renville,44.791,-95.1029,458,362,polygon,FALSE,TRUE,America/Chicago,3,56230,1840006772
Ellsworth,Ellsworth,MN,Minnesota,27105,Nobles,43.5209,-96.0197,456,267,polygon,FALSE,TRUE,America/Chicago,3,56129,1840007927
Kellogg,Kellogg,MN,Minnesota,27157,Wabasha,44.3074,-91.9989,453,565,polygon,FALSE,TRUE,America/Chicago,3,55945,1840007902
Cosmos,Cosmos,MN,Minnesota,27093,Meeker,44.9354,-94.6949,449,156,polygon,FALSE,TRUE,America/Chicago,3,56228,1840006731
Randolph,Randolph,MN,Minnesota,27037,Dakota,44.526,-93.0198,446,180,polygon,FALSE,TRUE,America/Chicago,3,55009 55065,1840008950
Akeley,Akeley,MN,Minnesota,27057,Hubbard,47.0005,-94.728,443,116,polygon,FALSE,TRUE,America/Chicago,3,56433,1840006627
Bigfork,Bigfork,MN,Minnesota,27061,Itasca,47.7473,-93.6525,442,92,polygon,FALSE,TRUE,America/Chicago,3,56628,1840006612
Ashby,Ashby,MN,Minnesota,27051,Grant,46.0931,-95.8157,441,308,polygon,FALSE,TRUE,America/Chicago,3,56309,1840006675
Herman,Herman,MN,Minnesota,27051,Grant,45.8105,-96.1414,440,153,polygon,FALSE,TRUE,America/Chicago,3,56248,1840006677
New Auburn,New Auburn,MN,Minnesota,27143,Sibley,44.6728,-94.232,437,247,polygon,FALSE,TRUE,America/Chicago,3,55366,1840007868
Wykoff,Wykoff,MN,Minnesota,27045,Fillmore,43.7086,-92.2674,430,177,polygon,FALSE,TRUE,America/Chicago,3,55990,1840010040
Oklee,Oklee,MN,Minnesota,27125,Red Lake,47.839,-95.8509,429,268,polygon,FALSE,TRUE,America/Chicago,3,56742,1840007712
Sturgeon Lake,Sturgeon Lake,MN,Minnesota,27115,Pine,46.3863,-92.8241,429,43,polygon,FALSE,TRUE,America/Chicago,3,55783,1840008855
Rose Creek,Rose Creek,MN,Minnesota,27099,Mower,43.6045,-92.8289,424,333,polygon,FALSE,TRUE,America/Chicago,3,55970,1840009006
Upsala,Upsala,MN,Minnesota,27097,Morrison,45.81,-94.5673,424,50,polygon,FALSE,TRUE,America/Chicago,3,56384 56340 56318 56382,1840009983
Wrenshall,Wrenshall,MN,Minnesota,27017,Carlton,46.6217,-92.384,424,109,polygon,FALSE,TRUE,America/Chicago,3,55797,1840009973
Miltona,Miltona,MN,Minnesota,27041,Douglas,46.0462,-95.2931,424,246,polygon,FALSE,TRUE,America/Chicago,3,56354,1840007773
Fisher,Fisher,MN,Minnesota,27119,Polk,47.7993,-96.7995,419,379,polygon,FALSE,TRUE,America/Chicago,3,56723,1840007703
New Germany,New Germany,MN,Minnesota,27019,Carver,44.8861,-93.9731,419,162,polygon,FALSE,TRUE,America/Chicago,3,55367,1840007848
Vermillion,Vermillion,MN,Minnesota,27037,Dakota,44.6735,-92.9643,419,164,polygon,FALSE,TRUE,America/Chicago,3,55085 55033,1840010011
Fairhaven,Fairhaven,MN,Minnesota,27145,Stearns,45.3232,-94.204,416,84,polygon,FALSE,FALSE,America/Chicago,3,55382,1840025297
Long Beach,Long Beach,MN,Minnesota,27121,Pope,45.6509,-95.4294,415,110,polygon,FALSE,TRUE,America/Chicago,3,56334,1840008888
Nevis,Nevis,MN,Minnesota,27057,Hubbard,46.9646,-94.8423,414,172,polygon,FALSE,TRUE,America/Chicago,3,56467,1840007723
Clinton,Clinton,MN,Minnesota,27011,Big Stone,45.4632,-96.4415,413,166,polygon,FALSE,TRUE,America/Chicago,3,56225,1840006695
Barrett,Barrett,MN,Minnesota,27051,Grant,45.9124,-95.8943,407,75,polygon,FALSE,TRUE,America/Chicago,3,56311,1840006676
Waubun,Waubun,MN,Minnesota,27087,Mahnomen,47.184,-95.9401,405,304,polygon,FALSE,TRUE,America/Chicago,3,56589,1840009965
Fifty Lakes,Fifty Lakes,MN,Minnesota,27035,Crow Wing,46.7618,-94.0898,404,5,polygon,FALSE,TRUE,America/Chicago,3,56448,1840007737
Wood Lake,Wood Lake,MN,Minnesota,27173,Yellow Medicine,44.6513,-95.5358,401,205,polygon,FALSE,TRUE,America/Chicago,3,56297,1840010010
Willow River,Willow River,MN,Minnesota,27115,Pine,46.3204,-92.835,400,90,polygon,FALSE,TRUE,America/Chicago,3,55795,1840009981
Fountain,Fountain,MN,Minnesota,27045,Fillmore,43.7426,-92.1342,399,154,polygon,FALSE,TRUE,America/Chicago,3,55935,1840007939
Remer,Remer,MN,Minnesota,27021,Cass,47.0569,-93.9126,398,115,polygon,FALSE,TRUE,America/Chicago,3,56672,1840008838
St. Marys Point,St. Marys Point,MN,Minnesota,27163,Washington,44.9128,-92.7704,392,392,polygon,FALSE,TRUE,America/Chicago,3,55043,1840008916
Pine Springs,Pine Springs,MN,Minnesota,27163,Washington,45.0368,-92.9543,391,195,polygon,FALSE,TRUE,America/Chicago,3,55128 55115,1840008915
Chokio,Chokio,MN,Minnesota,27149,Stevens,45.5731,-96.1748,386,344,polygon,FALSE,TRUE,America/Chicago,3,56221,1840006687
Emmons,Emmons,MN,Minnesota,27047,Freeborn,43.5068,-93.4851,379,178,polygon,FALSE,TRUE,America/Chicago,3,56029,1840007929
Soudan,Soudan,MN,Minnesota,27137,St. Louis,47.813,-92.2356,378,214,polygon,FALSE,FALSE,America/Chicago,3,55782,1840025244
Hanska,Hanska,MN,Minnesota,27015,Brown,44.1487,-94.4945,375,587,polygon,FALSE,TRUE,America/Chicago,3,56041,1840006792
Ogilvie,Ogilvie,MN,Minnesota,27065,Kanabec,45.829,-93.4221,374,141,polygon,FALSE,TRUE,America/Chicago,3,56358,1840007764
Morton,Morton,MN,Minnesota,27129,Renville,44.5534,-94.985,374,119,polygon,FALSE,TRUE,America/Chicago,3,56270,1840007862
Medicine Lake,Medicine Lake,MN,Minnesota,27053,Hennepin,44.9998,-93.4199,374,837,polygon,FALSE,TRUE,America/Chicago,3,55441,1840007826
Pine Point,Pine Point,MN,Minnesota,27005,Becker,46.9889,-95.3883,373,40,polygon,FALSE,FALSE,America/Chicago,3,56575,1840004001
Round Lake,Round Lake,MN,Minnesota,27105,Nobles,43.5372,-95.4705,368,206,polygon,FALSE,TRUE,America/Chicago,3,56167,1840008999
Ghent,Ghent,MN,Minnesota,27083,Lyon,44.5116,-95.8926,366,451,polygon,FALSE,TRUE,America/Chicago,3,56239,1840007878
Underwood,Underwood,MN,Minnesota,27111,Otter Tail,46.2869,-95.8721,365,244,polygon,FALSE,TRUE,America/Chicago,3,56586,1840009975
Newfolden,Newfolden,MN,Minnesota,27089,Marshall,48.3568,-96.3298,363,137,polygon,FALSE,TRUE,America/Chicago,3,56738,1840007696
McGregor,McGregor,MN,Minnesota,27001,Aitkin,46.6087,-93.3055,363,65,polygon,FALSE,TRUE,America/Chicago,3,55760,1840007733
Alvarado,Alvarado,MN,Minnesota,27089,Marshall,48.1929,-96.9985,362,669,polygon,FALSE,TRUE,America/Chicago,3,56710,1840006596
Cuyuna,Cuyuna,MN,Minnesota,27035,Crow Wing,46.5115,-93.9265,360,42,polygon,FALSE,TRUE,America/Chicago,3,56444 56441,1840006642
Mahtowa,Mahtowa,MN,Minnesota,27017,Carlton,46.5616,-92.6279,358,13,polygon,FALSE,FALSE,America/Chicago,3,55707 55718,1840025267
Badger,Badger,MN,Minnesota,27135,Roseau,48.7768,-96.0212,355,102,polygon,FALSE,TRUE,America/Chicago,3,56714,1840006585
Milan,Milan,MN,Minnesota,27023,Chippewa,45.1125,-95.9117,354,192,polygon,FALSE,TRUE,America/Chicago,3,56262,1840007836
Belview,Belview,MN,Minnesota,27127,Redwood,44.6065,-95.3287,354,149,polygon,FALSE,TRUE,America/Chicago,3,56214,1840006782
Comfrey,Comfrey,MN,Minnesota,27015,Brown,44.1111,-94.9029,354,319,polygon,FALSE,TRUE,America/Chicago,3,56019,1840006791
Askov,Askov,MN,Minnesota,27115,Pine,46.1886,-92.7824,353,108,polygon,FALSE,TRUE,America/Chicago,3,55704,1840006660
Darwin,Darwin,MN,Minnesota,27093,Meeker,45.0968,-94.4136,353,67,polygon,FALSE,TRUE,America/Chicago,3,55324,1840006732
Vergas,Vergas,MN,Minnesota,27111,Otter Tail,46.6549,-95.8038,352,93,polygon,FALSE,TRUE,America/Chicago,3,56587,1840009977
Calumet,Calumet,MN,Minnesota,27061,Itasca,47.3198,-93.2667,351,75,polygon,FALSE,TRUE,America/Chicago,3,55709 55764 55716,1840006609
Garfield,Garfield,MN,Minnesota,27041,Douglas,45.9387,-95.4942,350,167,polygon,FALSE,TRUE,America/Chicago,3,56332,1840007770
St. Martin,St. Martin,MN,Minnesota,27145,Stearns,45.5028,-94.6678,348,153,polygon,FALSE,TRUE,America/Chicago,3,56362 56376,1840008883
Dexter,Dexter,MN,Minnesota,27099,Mower,43.7194,-92.7017,347,95,polygon,FALSE,TRUE,America/Chicago,3,55926,1840006831
Jeffers,Jeffers,MN,Minnesota,27033,Cottonwood,44.0559,-95.1953,346,344,polygon,FALSE,TRUE,America/Chicago,3,56145,1840007918
Maynard,Maynard,MN,Minnesota,27023,Chippewa,44.9056,-95.4688,345,222,polygon,FALSE,TRUE,America/Chicago,3,56260,1840007835
Canton,Canton,MN,Minnesota,27045,Fillmore,43.5298,-91.9299,344,129,polygon,FALSE,TRUE,America/Chicago,3,55922,1840006836
Swanville,Swanville,MN,Minnesota,27097,Morrison,45.9162,-94.6388,342,250,polygon,FALSE,TRUE,America/Chicago,3,56382,1840008863
Russell,Russell,MN,Minnesota,27083,Lyon,44.3199,-95.9474,342,143,polygon,FALSE,TRUE,America/Chicago,3,56169,1840008968
Ceylon,Ceylon,MN,Minnesota,27091,Martin,43.5326,-94.6305,339,256,polygon,FALSE,TRUE,America/Chicago,3,56121,1840006843
Bricelyn,Bricelyn,MN,Minnesota,27043,Faribault,43.5607,-93.8131,337,447,polygon,FALSE,TRUE,America/Chicago,3,56014,1840004171
Rushmore,Rushmore,MN,Minnesota,27105,Nobles,43.6197,-95.799,335,509,polygon,FALSE,TRUE,America/Chicago,3,56168,1840009000
Orr,Orr,MN,Minnesota,27137,St. Louis,48.0594,-92.8248,334,91,polygon,FALSE,TRUE,America/Chicago,3,55771,1840008817
Lancaster,Lancaster,MN,Minnesota,27069,Kittson,48.8577,-96.8019,334,55,polygon,FALSE,TRUE,America/Chicago,3,56735,1840007680
Grey Eagle,Grey Eagle,MN,Minnesota,27153,Todd,45.8245,-94.749,329,356,polygon,FALSE,TRUE,America/Chicago,3,56336,1840006667
Nett Lake,Nett Lake,MN,Minnesota,27137,St. Louis,48.1146,-93.0811,326,73,polygon,FALSE,FALSE,America/Chicago,3,55771 55772,1840026094
Wilmont,Wilmont,MN,Minnesota,27105,Nobles,43.765,-95.8269,326,181,polygon,FALSE,TRUE,America/Chicago,3,56185,1840010035
New Munich,New Munich,MN,Minnesota,27145,Stearns,45.6309,-94.7525,324,233,polygon,FALSE,TRUE,America/Chicago,3,56356 56352,1840007783
Riverland,Riverland,MN,Minnesota,27087,Mahnomen,47.3219,-95.9512,323,761,polygon,FALSE,TRUE,America/Chicago,3,56557,1840039628
Oslo,Oslo,MN,Minnesota,27089,Marshall,48.1954,-97.1321,322,335,polygon,FALSE,TRUE,America/Chicago,3,56744,1840008821
Deer Creek,Deer Creek,MN,Minnesota,27111,Otter Tail,46.3909,-95.3218,321,30,polygon,FALSE,TRUE,America/Chicago,3,56527,1840006655
Osage,Osage,MN,Minnesota,27005,Becker,46.9283,-95.2586,317,44,polygon,FALSE,FALSE,America/Chicago,3,56570,1840025259
Garden City,Garden City,MN,Minnesota,27013,Blue Earth,44.0485,-94.1713,317,68,polygon,FALSE,FALSE,America/Chicago,3,56034,1840025379
Vernon Center,Vernon Center,MN,Minnesota,27013,Blue Earth,43.9626,-94.1666,313,245,polygon,FALSE,TRUE,America/Chicago,3,56090,1840010025
Lakeland Shores,Lakeland Shores,MN,Minnesota,27163,Washington,44.9478,-92.7612,312,375,polygon,FALSE,TRUE,America/Chicago,3,55043,1840007817
Sanborn,Sanborn,MN,Minnesota,27127,Redwood,44.2098,-95.1297,310,57,polygon,FALSE,TRUE,America/Chicago,3,56083,1840008963
Hackensack,Hackensack,MN,Minnesota,27021,Cass,46.9269,-94.5159,310,117,polygon,FALSE,TRUE,America/Chicago,3,56452,1840006626
Finlayson,Finlayson,MN,Minnesota,27115,Pine,46.2051,-92.9248,307,42,polygon,FALSE,TRUE,America/Chicago,3,55735,1840007752
Dakota,Dakota,MN,Minnesota,27169,Winona,43.9106,-91.3605,306,214,polygon,FALSE,TRUE,America/Chicago,3,55925,1840006812
Hartland,Hartland,MN,Minnesota,27047,Freeborn,43.8042,-93.4843,306,437,polygon,FALSE,TRUE,America/Chicago,3,56042,1840006826
Plato,Plato,MN,Minnesota,27085,McLeod,44.7724,-94.0397,304,338,polygon,FALSE,TRUE,America/Chicago,3,55370,1840008944
Kensington,Kensington,MN,Minnesota,27041,Douglas,45.7783,-95.697,303,328,polygon,FALSE,TRUE,America/Chicago,3,56343,1840007774
Middle River,Middle River,MN,Minnesota,27089,Marshall,48.4349,-96.1617,301,233,polygon,FALSE,TRUE,America/Chicago,3,56737,1840007697
Lowry,Lowry,MN,Minnesota,27121,Pope,45.705,-95.519,300,252,polygon,FALSE,TRUE,America/Chicago,3,56349,1840008889
Skyline,Skyline,MN,Minnesota,27013,Blue Earth,44.1408,-94.034,300,597,polygon,FALSE,TRUE,America/Chicago,3,56001,1840008977
Hollandale,Hollandale,MN,Minnesota,27047,Freeborn,43.7598,-93.2043,299,262,polygon,FALSE,TRUE,America/Chicago,3,56045,1840006828
Vesta,Vesta,MN,Minnesota,27127,Redwood,44.5066,-95.4139,296,286,polygon,FALSE,TRUE,America/Chicago,3,56292,1840010015
Wilton,Wilton,MN,Minnesota,27007,Beltrami,47.5065,-94.9969,296,43,polygon,FALSE,TRUE,America/Chicago,3,56601 56687,1840009959
Nerstrand,Nerstrand,MN,Minnesota,27131,Rice,44.3429,-93.0638,294,80,polygon,FALSE,TRUE,America/Chicago,3,55053,1840007890
Plummer,Plummer,MN,Minnesota,27125,Red Lake,47.9151,-96.0416,291,42,polygon,FALSE,TRUE,America/Chicago,3,56748,1840008828
Granada,Granada,MN,Minnesota,27091,Martin,43.6933,-94.3495,285,189,polygon,FALSE,TRUE,America/Chicago,3,56039,1840007951
Hendrum,Hendrum,MN,Minnesota,27107,Norman,47.2641,-96.8104,281,334,polygon,FALSE,TRUE,America/Chicago,3,56550,1840006620
Beaver Creek,Beaver Creek,MN,Minnesota,27133,Rock,43.6124,-96.3624,280,204,polygon,FALSE,TRUE,America/Chicago,3,56116,1840006817
Gonvick,Gonvick,MN,Minnesota,27029,Clearwater,47.7391,-95.5125,279,82,polygon,FALSE,TRUE,America/Chicago,3,56644,1840007710
Bowlus,Bowlus,MN,Minnesota,27097,Morrison,45.8191,-94.4072,279,84,polygon,FALSE,TRUE,America/Chicago,3,56314,1840006670
Hanley Falls,Hanley Falls,MN,Minnesota,27173,Yellow Medicine,44.6917,-95.6194,277,428,polygon,FALSE,TRUE,America/Chicago,3,56245,1840006764
Lake George,Lake George,MN,Minnesota,27057,Hubbard,47.1881,-94.9801,277,23,polygon,FALSE,FALSE,America/Chicago,3,56458,1840025255
Buckman,Buckman,MN,Minnesota,27097,Morrison,45.8973,-94.094,276,105,polygon,FALSE,TRUE,America/Chicago,3,56364 56317,1840006669
Utica,Utica,MN,Minnesota,27169,Winona,43.9772,-91.9494,276,107,polygon,FALSE,TRUE,America/Chicago,3,55979,1840010033
Cyrus,Cyrus,MN,Minnesota,27121,Pope,45.6147,-95.7381,276,397,polygon,FALSE,TRUE,America/Chicago,3,56323,1840006691
Freeborn,Freeborn,MN,Minnesota,27047,Freeborn,43.7659,-93.5645,274,577,polygon,FALSE,TRUE,America/Chicago,3,56032,1840007930
Silver Creek,Silver Creek,MN,Minnesota,27171,Wright,45.3127,-93.9827,272,70,polygon,FALSE,FALSE,America/Chicago,3,55358,1840025305
Searles,Searles,MN,Minnesota,27015,Brown,44.2307,-94.4361,270,238,polygon,FALSE,FALSE,America/Chicago,3,56073 56084,1840025372
Kelliher,Kelliher,MN,Minnesota,27007,Beltrami,47.9438,-94.4446,267,46,polygon,FALSE,TRUE,America/Chicago,3,56650,1840007699
St. Hilaire,St. Hilaire,MN,Minnesota,27113,Pennington,48.0135,-96.2137,264,130,polygon,FALSE,TRUE,America/Chicago,3,56754,1840008826
Climax,Climax,MN,Minnesota,27119,Polk,47.6095,-96.8122,263,108,polygon,FALSE,TRUE,America/Chicago,3,56523,1840006603
Murdock,Murdock,MN,Minnesota,27151,Swift,45.2234,-95.3946,263,163,polygon,FALSE,TRUE,America/Chicago,3,56271,1840007804
Hewitt,Hewitt,MN,Minnesota,27153,Todd,46.324,-95.0902,256,47,polygon,FALSE,TRUE,America/Chicago,3,56453,1840006668
Echo,Echo,MN,Minnesota,27173,Yellow Medicine,44.6218,-95.4115,254,96,polygon,FALSE,TRUE,America/Chicago,3,56237,1840007850
Villard,Villard,MN,Minnesota,27121,Pope,45.7142,-95.2692,253,125,polygon,FALSE,TRUE,America/Chicago,3,56385,1840009990
Backus,Backus,MN,Minnesota,27021,Cass,46.8207,-94.5149,252,156,polygon,FALSE,TRUE,America/Chicago,3,56435,1840006623
Eitzen,Eitzen,MN,Minnesota,27055,Houston,43.508,-91.4636,249,157,polygon,FALSE,TRUE,America/Chicago,3,55931,1840007937
Dalton,Dalton,MN,Minnesota,27111,Otter Tail,46.1739,-95.9156,249,406,polygon,FALSE,TRUE,America/Chicago,3,56324,1840006651
Ostrander,Ostrander,MN,Minnesota,27045,Fillmore,43.6137,-92.4263,248,201,polygon,FALSE,TRUE,America/Chicago,3,55961,1840009011
Lewisville,Lewisville,MN,Minnesota,27165,Watonwan,43.9241,-94.434,247,399,polygon,FALSE,TRUE,America/Chicago,3,56060,1840007924
Chandler,Chandler,MN,Minnesota,27101,Murray,43.9306,-95.9512,246,120,polygon,FALSE,TRUE,America/Chicago,3,56122,1840006801
Hayward,Hayward,MN,Minnesota,27047,Freeborn,43.6499,-93.246,242,153,polygon,FALSE,TRUE,America/Chicago,3,56043,1840006827
Pemberton,Pemberton,MN,Minnesota,27013,Blue Earth,44.0084,-93.7838,241,495,polygon,FALSE,TRUE,America/Chicago,3,56078,1840008978
Zumbro Falls,Zumbro Falls,MN,Minnesota,27157,Wabasha,44.2849,-92.4263,239,162,polygon,FALSE,TRUE,America/Chicago,3,55991,1840010024
Milroy,Milroy,MN,Minnesota,27127,Redwood,44.4178,-95.5536,237,350,polygon,FALSE,TRUE,America/Chicago,3,56263,1840007871
Lake Lillian,Lake Lillian,MN,Minnesota,27067,Kandiyohi,44.9458,-94.88,235,200,polygon,FALSE,TRUE,America/Chicago,3,56253,1840007803
Twin Lakes,Twin Lakes,MN,Minnesota,27087,Mahnomen,47.2261,-95.6555,235,33,polygon,FALSE,TRUE,America/Chicago,3,56589 56566,1840150164
Donnelly,Donnelly,MN,Minnesota,27149,Stevens,45.6895,-96.0143,234,32,polygon,FALSE,TRUE,America/Chicago,3,56235,1840006690
Cromwell,Cromwell,MN,Minnesota,27017,Carlton,46.6795,-92.873,232,48,polygon,FALSE,TRUE,America/Chicago,3,55726,1840006647
Bigelow,Bigelow,MN,Minnesota,27105,Nobles,43.5053,-95.6892,231,226,polygon,FALSE,TRUE,America/Chicago,3,56117,1840006821
Callaway,Callaway,MN,Minnesota,27005,Becker,46.982,-95.912,230,140,polygon,FALSE,TRUE,America/Chicago,3,56521,1840006629
Pease,Pease,MN,Minnesota,27095,Mille Lacs,45.6995,-93.6491,229,167,polygon,FALSE,TRUE,America/Chicago,3,56353 56363,1840008868
Elrosa,Elrosa,MN,Minnesota,27145,Stearns,45.5629,-94.9472,228,561,polygon,FALSE,TRUE,America/Chicago,3,56325 56312,1840007778
Frontenac,Frontenac,MN,Minnesota,27049,Goodhue,44.5061,-92.3511,227,47,polygon,FALSE,FALSE,America/Chicago,3,55026 55066 55041,1840025353
Lake Wilson,Lake Wilson,MN,Minnesota,27101,Murray,43.9953,-95.9533,227,207,polygon,FALSE,TRUE,America/Chicago,3,56151,1840007910
Flensburg,Flensburg,MN,Minnesota,27097,Morrison,45.948,-94.5301,227,12,polygon,FALSE,TRUE,America/Chicago,3,56328 56345 56382,1840007756
Waldorf,Waldorf,MN,Minnesota,27161,Waseca,43.9332,-93.6976,226,230,polygon,FALSE,TRUE,America/Chicago,3,56091,1840010029
Winger,Winger,MN,Minnesota,27119,Polk,47.5376,-95.9864,222,190,polygon,FALSE,TRUE,America/Chicago,3,56592,1840009962
Greenwald,Greenwald,MN,Minnesota,27145,Stearns,45.6014,-94.8594,222,120,polygon,FALSE,TRUE,America/Chicago,3,56352 56335,1840007780
Lismore,Lismore,MN,Minnesota,27105,Nobles,43.7491,-95.948,221,244,polygon,FALSE,TRUE,America/Chicago,3,56155,1840008998
Rutledge,Rutledge,MN,Minnesota,27115,Pine,46.257,-92.8696,221,28,polygon,FALSE,TRUE,America/Chicago,3,55704 55795,1840008857
Ruthton,Ruthton,MN,Minnesota,27117,Pipestone,44.1776,-96.1035,221,147,polygon,FALSE,TRUE,America/Chicago,3,56170,1840008981
Wahkon,Wahkon,MN,Minnesota,27095,Mille Lacs,46.1206,-93.5223,219,88,polygon,FALSE,TRUE,America/Chicago,3,56386,1840009984
Gilman,Gilman,MN,Minnesota,27009,Benton,45.7353,-93.9483,219,173,polygon,FALSE,TRUE,America/Chicago,3,56329,1840007777
Mendota,Mendota,MN,Minnesota,27037,Dakota,44.8877,-93.1607,217,327,polygon,FALSE,TRUE,America/Chicago,3,55150,1840007854
Currie,Currie,MN,Minnesota,27101,Murray,44.0704,-95.6668,216,151,polygon,FALSE,TRUE,America/Chicago,3,56123,1840006800
Dennison,Dennison,MN,Minnesota,27049,Goodhue,44.4088,-93.0303,214,65,polygon,FALSE,TRUE,America/Chicago,3,55018,1840006780
Bluffton,Bluffton,MN,Minnesota,27111,Otter Tail,46.4696,-95.2337,214,30,polygon,FALSE,TRUE,America/Chicago,3,56518 56482,1840006653
Lutsen,Lutsen,MN,Minnesota,27031,Cook,47.6715,-90.6885,213,7,polygon,FALSE,FALSE,America/Chicago,3,55612,1840026063
Northrop,Northrop,MN,Minnesota,27091,Martin,43.7359,-94.4367,213,629,polygon,FALSE,TRUE,America/Chicago,3,56075 56031,1840007952
Beardsley,Beardsley,MN,Minnesota,27011,Big Stone,45.5577,-96.7139,212,174,polygon,FALSE,TRUE,America/Chicago,3,56211,1840006698
Grygla,Grygla,MN,Minnesota,27089,Marshall,48.2996,-95.624,211,140,polygon,FALSE,TRUE,America/Chicago,3,56727,1840006598
Hitterdal,Hitterdal,MN,Minnesota,27027,Clay,46.9778,-96.2584,211,95,polygon,FALSE,TRUE,America/Chicago,3,56552,1840006636
Magnolia,Magnolia,MN,Minnesota,27133,Rock,43.6441,-96.0752,209,101,polygon,FALSE,TRUE,America/Chicago,3,56158,1840008996
Big Falls,Big Falls,MN,Minnesota,27071,Koochiching,48.1794,-93.8092,208,13,polygon,FALSE,TRUE,America/Chicago,3,56627,1840006586
Garrison,Garrison,MN,Minnesota,27035,Crow Wing,46.2992,-93.8262,207,76,polygon,FALSE,TRUE,America/Chicago,3,56450,1840007739
Lake Bronson,Lake Bronson,MN,Minnesota,27069,Kittson,48.7322,-96.664,205,149,polygon,FALSE,TRUE,America/Chicago,3,56734,1840007679
Storden,Storden,MN,Minnesota,27033,Cottonwood,44.0396,-95.3193,204,355,polygon,FALSE,TRUE,America/Chicago,3,56174,1840008988
Gary,Gary,MN,Minnesota,27107,Norman,47.3725,-96.2656,202,242,polygon,FALSE,TRUE,America/Chicago,3,56545,1840007719
Sobieski,Sobieski,MN,Minnesota,27097,Morrison,45.923,-94.482,201,19,polygon,FALSE,TRUE,America/Chicago,3,56345,1840008862
Tenstrike,Tenstrike,MN,Minnesota,27007,Beltrami,47.6603,-94.6843,200,23,polygon,FALSE,TRUE,America/Chicago,3,56683,1840008823
Peterson,Peterson,MN,Minnesota,27045,Fillmore,43.7868,-91.8333,198,160,polygon,FALSE,TRUE,America/Chicago,3,55962,1840009012
Meire Grove,Meire Grove,MN,Minnesota,27145,Stearns,45.6264,-94.8694,197,195,polygon,FALSE,TRUE,America/Chicago,3,56352,1840007781
Okabena,Okabena,MN,Minnesota,27063,Jackson,43.7391,-95.3165,195,337,polygon,FALSE,TRUE,America/Chicago,3,56161,1840007941
Nelson,Nelson,MN,Minnesota,27041,Douglas,45.8865,-95.2648,194,113,polygon,FALSE,TRUE,America/Chicago,3,56355,1840007771
South Haven,South Haven,MN,Minnesota,27171,Wright,45.2927,-94.2174,193,117,polygon,FALSE,TRUE,America/Chicago,3,55382,1840008898
Homer,Homer,MN,Minnesota,27169,Winona,44.0084,-91.5601,193,62,polygon,FALSE,FALSE,America/Chicago,3,55987,1840025395
Inger,Inger,MN,Minnesota,27061,Itasca,47.558,-93.9794,193,39,polygon,FALSE,FALSE,America/Chicago,3,56636,1840026096
Leota,Leota,MN,Minnesota,27105,Nobles,43.8292,-96.0231,192,54,polygon,FALSE,FALSE,America/Chicago,3,56128 56153,1840004167
Forada,Forada,MN,Minnesota,27041,Douglas,45.7884,-95.3567,190,145,polygon,FALSE,TRUE,America/Chicago,3,56308,1840007769
Watson,Watson,MN,Minnesota,27023,Chippewa,45.0099,-95.8,189,423,polygon,FALSE,TRUE,America/Chicago,3,56295,1840010003
Northome,Northome,MN,Minnesota,27071,Koochiching,47.8748,-94.2675,188,49,polygon,FALSE,TRUE,America/Chicago,3,56661,1840007682
Minnesota City,Minnesota City,MN,Minnesota,27169,Winona,44.0923,-91.75,187,290,polygon,FALSE,TRUE,America/Chicago,3,55959,1840000326
Dent,Dent,MN,Minnesota,27111,Otter Tail,46.553,-95.719,186,193,polygon,FALSE,TRUE,America/Chicago,3,56528,1840006656
Ogema,Ogema,MN,Minnesota,27005,Becker,47.1016,-95.9225,185,58,polygon,FALSE,TRUE,America/Chicago,3,56569,1840007726
Easton,Easton,MN,Minnesota,27043,Faribault,43.7661,-93.9,184,74,polygon,FALSE,TRUE,America/Chicago,3,56025,1840007944
Hardwick,Hardwick,MN,Minnesota,27133,Rock,43.7742,-96.1975,183,40,polygon,FALSE,TRUE,America/Chicago,3,56134,1840006818
Frost,Frost,MN,Minnesota,27043,Faribault,43.5846,-93.9248,182,163,polygon,FALSE,TRUE,America/Chicago,3,56033,1840007946
Warba,Warba,MN,Minnesota,27061,Itasca,47.1366,-93.2657,182,21,polygon,FALSE,TRUE,America/Chicago,3,55793,1840009963
Kennedy,Kennedy,MN,Minnesota,27069,Kittson,48.6429,-96.9106,180,172,polygon,FALSE,TRUE,America/Chicago,3,56733,1840007678
Shelly,Shelly,MN,Minnesota,27107,Norman,47.4582,-96.8197,179,327,polygon,FALSE,TRUE,America/Chicago,3,56581,1840008833
Finland,Finland,MN,Minnesota,27075,Lake,47.435,-91.2683,179,12,polygon,FALSE,FALSE,America/Chicago,3,55603,1840025249
Millville,Millville,MN,Minnesota,27157,Wabasha,44.2447,-92.296,178,459,polygon,FALSE,TRUE,America/Chicago,3,55957,1840007900
Shevlin,Shevlin,MN,Minnesota,27029,Clearwater,47.5302,-95.2595,175,83,polygon,FALSE,TRUE,America/Chicago,3,56676,1840008827
Lucan,Lucan,MN,Minnesota,27127,Redwood,44.41,-95.4135,175,170,polygon,FALSE,TRUE,America/Chicago,3,56255,1840008960
Mapleview,Mapleview,MN,Minnesota,27099,Mower,43.6901,-92.974,175,362,polygon,FALSE,TRUE,America/Chicago,3,55912,1840009003
Williams,Williams,MN,Minnesota,27077,Lake of the Woods,48.768,-94.9533,174,68,polygon,FALSE,TRUE,America/Chicago,3,56686,1840010905
Bellechester,Bellechester,MN,Minnesota,27049,Goodhue,44.371,-92.5113,174,212,polygon,FALSE,TRUE,America/Chicago,3,55027,1840006779
Holland,Holland,MN,Minnesota,27117,Pipestone,44.0896,-96.1944,173,72,polygon,FALSE,TRUE,America/Chicago,3,56139,1840006798
Felton,Felton,MN,Minnesota,27027,Clay,47.0749,-96.5058,172,65,polygon,FALSE,TRUE,America/Chicago,3,56536,1840007728
Kettle River,Kettle River,MN,Minnesota,27017,Carlton,46.4862,-92.8776,172,171,polygon,FALSE,TRUE,America/Chicago,3,55757,1840007744
Elizabeth,Elizabeth,MN,Minnesota,27111,Otter Tail,46.3798,-96.1309,171,176,polygon,FALSE,TRUE,America/Chicago,3,56537 56533,1840007745
Beaver Bay,Beaver Bay,MN,Minnesota,27075,Lake,47.2561,-91.3061,171,82,polygon,FALSE,TRUE,America/Chicago,3,55614 55601,1840006602
Porter,Porter,MN,Minnesota,27173,Yellow Medicine,44.642,-96.1693,171,29,polygon,FALSE,TRUE,America/Chicago,3,56280,1840008945
Palisade,Palisade,MN,Minnesota,27001,Aitkin,46.7126,-93.4895,169,95,polygon,FALSE,TRUE,America/Chicago,3,56469,1840008842
Winton,Winton,MN,Minnesota,27137,St. Louis,47.9284,-91.8004,167,504,polygon,FALSE,TRUE,America/Chicago,3,55731 55796,1840009955
Delavan,Delavan,MN,Minnesota,27043,Faribault,43.7677,-94.0174,166,63,polygon,FALSE,TRUE,America/Chicago,3,56023,1840006842
Steen,Steen,MN,Minnesota,27133,Rock,43.5143,-96.2631,165,145,polygon,FALSE,TRUE,America/Chicago,3,56173,1840008997
Ball Club,Ball Club,MN,Minnesota,27061,Itasca,47.3311,-93.946,165,23,polygon,FALSE,FALSE,America/Chicago,3,56636,1840026095
Wendell,Wendell,MN,Minnesota,27051,Grant,46.0359,-96.1008,163,63,polygon,FALSE,TRUE,America/Chicago,3,56590,1840009985
Kingston,Kingston,MN,Minnesota,27093,Meeker,45.1959,-94.3109,162,113,polygon,FALSE,TRUE,America/Chicago,3,55325,1840007807
Blomkest,Blomkest,MN,Minnesota,27067,Kandiyohi,44.9428,-95.0235,158,59,polygon,FALSE,TRUE,America/Chicago,3,56216,1840006723
Boyd,Boyd,MN,Minnesota,27073,Lac qui Parle,44.8512,-95.9008,157,118,polygon,FALSE,TRUE,America/Chicago,3,56218,1840006742
Clontarf,Clontarf,MN,Minnesota,27151,Swift,45.377,-95.677,157,29,polygon,FALSE,TRUE,America/Chicago,3,56215 56226,1840006724
Elba,Elba,MN,Minnesota,27169,Winona,44.0864,-92.0181,156,29,polygon,FALSE,TRUE,America/Chicago,3,55910,1840007919
Coates,Coates,MN,Minnesota,27037,Dakota,44.716,-93.0323,156,43,polygon,FALSE,TRUE,America/Chicago,3,55068,1840006767
Grasston,Grasston,MN,Minnesota,27065,Kanabec,45.7957,-93.1524,153,62,polygon,FALSE,TRUE,America/Chicago,3,55030,1840007763
Campbell,Campbell,MN,Minnesota,27167,Wilkin,46.0975,-96.4055,151,246,polygon,FALSE,TRUE,America/Chicago,3,56522,1840006657
Waltham,Waltham,MN,Minnesota,27099,Mower,43.8193,-92.8746,150,121,polygon,FALSE,TRUE,America/Chicago,3,55982,1840010038
Longville,Longville,MN,Minnesota,27021,Cass,46.9877,-94.212,150,68,polygon,FALSE,TRUE,America/Chicago,3,56655,1840008835
Bellingham,Bellingham,MN,Minnesota,27073,Lac qui Parle,45.1366,-96.2841,150,149,polygon,FALSE,TRUE,America/Chicago,3,56212,1840006741
Elkton,Elkton,MN,Minnesota,27099,Mower,43.6602,-92.7065,148,44,polygon,FALSE,TRUE,America/Chicago,3,55933,1840007934
Mentor,Mentor,MN,Minnesota,27119,Polk,47.6966,-96.144,147,29,polygon,FALSE,TRUE,America/Chicago,3,56736,1840007706
Dunnell,Dunnell,MN,Minnesota,27091,Martin,43.5604,-94.7751,146,368,polygon,FALSE,TRUE,America/Chicago,3,56127,1840007949
Erhard,Erhard,MN,Minnesota,27111,Otter Tail,46.4836,-96.0965,146,101,polygon,FALSE,TRUE,America/Chicago,3,56534,1840007746
Kilkenny,Kilkenny,MN,Minnesota,27079,Le Sueur,44.3151,-93.5742,144,436,polygon,FALSE,TRUE,America/Chicago,3,56052,1840007885
Conger,Conger,MN,Minnesota,27047,Freeborn,43.6153,-93.5282,144,427,polygon,FALSE,TRUE,America/Chicago,3,56009 56020,1840006823
Kinney,Kinney,MN,Minnesota,27137,St. Louis,47.5167,-92.7227,143,14,polygon,FALSE,TRUE,America/Chicago,3,55768 55710 55758,1840007694
Brookston,Brookston,MN,Minnesota,27137,St. Louis,46.8654,-92.6027,141,100,polygon,FALSE,TRUE,America/Chicago,3,55711,1840003992
Marietta,Marietta,MN,Minnesota,27073,Lac qui Parle,45.0105,-96.419,141,148,polygon,FALSE,TRUE,America/Chicago,3,56257,1840007819
Clements,Clements,MN,Minnesota,27127,Redwood,44.3801,-95.0548,141,144,polygon,FALSE,TRUE,America/Chicago,3,56224,1840006781
Roosevelt,Roosevelt,MN,Minnesota,27135,Roseau,48.807,-95.101,138,51,polygon,FALSE,TRUE,America/Chicago,3,56673,1840008813
Brooks,Brooks,MN,Minnesota,27125,Red Lake,47.8165,-96.0036,137,45,polygon,FALSE,TRUE,America/Chicago,3,56715,1840003998
Burtrum,Burtrum,MN,Minnesota,27153,Todd,45.8658,-94.6874,136,92,polygon,FALSE,TRUE,America/Chicago,3,56318,1840006664
Avoca,Avoca,MN,Minnesota,27101,Murray,43.949,-95.6465,135,54,polygon,FALSE,TRUE,America/Chicago,3,56114,1840006802
Hammond,Hammond,MN,Minnesota,27157,Wabasha,44.2221,-92.3738,134,492,polygon,FALSE,TRUE,America/Chicago,3,55991,1840006794
Taunton,Taunton,MN,Minnesota,27083,Lyon,44.5942,-96.063,133,50,polygon,FALSE,TRUE,America/Chicago,3,56291,1840008967
Brook Park,Brook Park,MN,Minnesota,27115,Pine,45.9484,-93.0728,133,51,polygon,FALSE,TRUE,America/Chicago,3,55007,1840004005
Lansing,Lansing,MN,Minnesota,27099,Mower,43.7477,-92.9656,133,65,polygon,FALSE,FALSE,America/Chicago,3,55950 55912,1840025429
Garvin,Garvin,MN,Minnesota,27083,Lyon,44.2142,-95.7607,131,180,polygon,FALSE,TRUE,America/Chicago,3,56132,1840007877
Odessa,Odessa,MN,Minnesota,27011,Big Stone,45.2622,-96.3335,131,52,polygon,FALSE,TRUE,America/Chicago,3,56276,1840007792
Iona,Iona,MN,Minnesota,27101,Murray,43.9149,-95.7857,131,65,polygon,FALSE,TRUE,America/Chicago,3,56172 56141,1840007909
Wolverton,Wolverton,MN,Minnesota,27167,Wilkin,46.563,-96.7363,130,143,polygon,FALSE,TRUE,America/Chicago,3,56594,1840009979
Goodridge,Goodridge,MN,Minnesota,27113,Pennington,48.1442,-95.8039,129,264,polygon,FALSE,TRUE,America/Chicago,3,56725,1840007709
Quamba,Quamba,MN,Minnesota,27065,Kanabec,45.9155,-93.1753,127,70,polygon,FALSE,TRUE,America/Chicago,3,55007 55051,1840008870
Meadowlands,Meadowlands,MN,Minnesota,27137,St. Louis,47.0731,-92.7311,127,128,polygon,FALSE,TRUE,America/Chicago,3,55765,1840007691
Wright,Wright,MN,Minnesota,27017,Carlton,46.6725,-93.0069,127,33,polygon,FALSE,TRUE,America/Chicago,3,55787 55798,1840009974
Georgetown,Georgetown,MN,Minnesota,27027,Clay,47.0784,-96.7959,126,47,polygon,FALSE,TRUE,America/Chicago,3,56546,1840007729
Bingham Lake,Bingham Lake,MN,Minnesota,27033,Cottonwood,43.9096,-95.0461,124,63,polygon,FALSE,TRUE,America/Chicago,3,56118,1840006811
Heidelberg,Heidelberg,MN,Minnesota,27079,Le Sueur,44.4932,-93.6264,124,90,polygon,FALSE,TRUE,America/Chicago,3,56071,1840006789
West Union,West Union,MN,Minnesota,27153,Todd,45.7965,-95.0925,124,107,polygon,FALSE,TRUE,America/Chicago,3,56389 56360,1840009982
McKinley,McKinley,MN,Minnesota,27137,St. Louis,47.509,-92.4057,123,32,polygon,FALSE,TRUE,America/Chicago,3,55741,1840007690
Harding,Harding,MN,Minnesota,27097,Morrison,46.1191,-94.0368,123,15,polygon,FALSE,TRUE,America/Chicago,3,56364,1840006671
Bena,Bena,MN,Minnesota,27021,Cass,47.3404,-94.206,123,94,polygon,FALSE,TRUE,America/Chicago,3,56626,1840006624
De Graff,De Graff,MN,Minnesota,27151,Swift,45.2599,-95.4683,123,56,polygon,FALSE,TRUE,America/Chicago,3,56271,1840006729
Miesville,Miesville,MN,Minnesota,27037,Dakota,44.599,-92.8196,122,26,polygon,FALSE,TRUE,America/Chicago,3,55009 55033,1840007857
Ormsby,Ormsby,MN,Minnesota,27091,Martin,43.8503,-94.6986,122,133,polygon,FALSE,TRUE,America/Chicago,3,56162,1840008993
Alpha,Alpha,MN,Minnesota,27063,Jackson,43.6381,-94.871,119,302,polygon,FALSE,TRUE,America/Chicago,3,56111,1840006839
Woodstock,Woodstock,MN,Minnesota,27117,Pipestone,44.011,-96.0967,118,84,polygon,FALSE,TRUE,America/Chicago,3,56186,1840010027
Effie,Effie,MN,Minnesota,27061,Itasca,47.8411,-93.6377,118,12,polygon,FALSE,TRUE,America/Chicago,3,56639,1840007713
Elmdale,Elmdale,MN,Minnesota,27097,Morrison,45.834,-94.4942,117,13,polygon,FALSE,TRUE,America/Chicago,3,56314,1840007755
Laporte,Laporte,MN,Minnesota,27057,Hubbard,47.2147,-94.7573,116,63,polygon,FALSE,TRUE,America/Chicago,3,56461,1840007724
Roscoe,Roscoe,MN,Minnesota,27145,Stearns,45.4323,-94.6364,113,70,polygon,FALSE,TRUE,America/Chicago,3,56371 56362,1840008878
Riverton,Riverton,MN,Minnesota,27035,Crow Wing,46.4584,-94.0488,113,53,polygon,FALSE,TRUE,America/Chicago,3,56455,1840008846
Foxhome,Foxhome,MN,Minnesota,27167,Wilkin,46.2769,-96.3122,111,115,polygon,FALSE,TRUE,America/Chicago,3,56543,1840007749
Lake Henry,Lake Henry,MN,Minnesota,27145,Stearns,45.4619,-94.7965,111,216,polygon,FALSE,TRUE,America/Chicago,3,56362,1840007785
Chickamaw Beach,Chickamaw Beach,MN,Minnesota,27021,Cass,46.7452,-94.3844,111,19,polygon,FALSE,TRUE,America/Chicago,3,56474,1840006621
Federal Dam,Federal Dam,MN,Minnesota,27021,Cass,47.2407,-94.2192,110,22,polygon,FALSE,TRUE,America/Chicago,3,56641,1840007721
Biscay,Biscay,MN,Minnesota,27085,McLeod,44.8261,-94.274,110,596,polygon,FALSE,TRUE,America/Chicago,3,55336,1840006755
Minneiska,Minneiska,MN,Minnesota,27169,Winona,44.1975,-91.8763,108,82,polygon,FALSE,TRUE,America/Chicago,3,55910,1840007901
Comstock,Comstock,MN,Minnesota,27027,Clay,46.6596,-96.7466,108,181,polygon,FALSE,TRUE,America/Chicago,3,56525,1840006633
